[
  {
    "id": 1,
    "iataCode": "GKA",
    "icaoCode": "AYGA",
    "name": "Goroka",
    "fullName": "Goroka Airport",
    "cityId": 1,
    "countryId": 1,
    "timeZoneName": "West Pacific Standard Time",
    "location": {
      "longitude": 145.391881,
      "latitude": -6.081689,
      "altitude": 5282.0
    }
  },
  {
    "id": 2,
    "iataCode": "MAG",
    "icaoCode": "AYMD",
    "name": "Madang",
    "fullName": "Madang Airport",
    "cityId": 2,
    "countryId": 1,
    "timeZoneName": "West Pacific Standard Time",
    "location": {
      "longitude": 145.7887,
      "latitude": -5.207083,
      "altitude": 20.0
    }
  },
  {
    "id": 3,
    "iataCode": "HGU",
    "icaoCode": "AYMH",
    "name": "Mount Hagen",
    "fullName": "Mount Hagen Airport",
    "cityId": 3,
    "countryId": 1,
    "timeZoneName": "West Pacific Standard Time",
    "location": {
      "longitude": 144.295861,
      "latitude": -5.826789,
      "altitude": 5388.0
    }
  },
  {
    "id": 4,
    "iataCode": "LAE",
    "icaoCode": "AYNZ",
    "name": "Nadzab",
    "fullName": "Nadzab Airport",
    "cityId": 4,
    "countryId": 1,
    "timeZoneName": "West Pacific Standard Time",
    "location": {
      "longitude": 146.726242,
      "latitude": -6.569828,
      "altitude": 239.0
    }
  },
  {
    "id": 5,
    "iataCode": "POM",
    "icaoCode": "AYPY",
    "name": "Port Moresby Jacksons Intl",
    "fullName": "Port Moresby Jacksons Intl Airport",
    "cityId": 5,
    "countryId": 1,
    "timeZoneName": "West Pacific Standard Time",
    "location": {
      "longitude": 147.22005,
      "latitude": -9.443383,
      "altitude": 146.0
    }
  },
  {
    "id": 6,
    "iataCode": "WWK",
    "icaoCode": "AYWK",
    "name": "Wewak Intl",
    "fullName": "Wewak Intl Airport",
    "cityId": 6,
    "countryId": 1,
    "timeZoneName": "West Pacific Standard Time",
    "location": {
      "longitude": 143.669186,
      "latitude": -3.583828,
      "altitude": 19.0
    }
  },
  {
    "id": 7,
    "iataCode": "UAK",
    "icaoCode": "BGBW",
    "name": "Narsarsuaq",
    "fullName": "Narsarsuaq Airport",
    "cityId": 7,
    "countryId": 2,
    "timeZoneName": "Greenland Standard Time",
    "location": {
      "longitude": -45.425978,
      "latitude": 61.160517,
      "altitude": 112.0
    }
  },
  {
    "id": 8,
    "iataCode": "GOH",
    "icaoCode": "BGGH",
    "name": "Nuuk",
    "fullName": "Nuuk Airport",
    "cityId": 8,
    "countryId": 2,
    "timeZoneName": "Greenland Standard Time",
    "location": {
      "longitude": -51.678064,
      "latitude": 64.190922,
      "altitude": 283.0
    }
  },
  {
    "id": 9,
    "iataCode": "SFJ",
    "icaoCode": "BGSF",
    "name": "Sondre Stromfjord",
    "fullName": "Sondre Stromfjord Airport",
    "cityId": 9,
    "countryId": 2,
    "timeZoneName": "Greenland Standard Time",
    "location": {
      "longitude": -50.689325,
      "latitude": 67.016969,
      "altitude": 165.0
    }
  },
  {
    "id": 10,
    "iataCode": "THU",
    "icaoCode": "BGTL",
    "name": "Thule Air Base",
    "fullName": "Thule Air Base Airport",
    "cityId": 10,
    "countryId": 2,
    "timeZoneName": "Atlantic Standard Time",
    "location": {
      "longitude": -68.703161,
      "latitude": 76.531203,
      "altitude": 251.0
    }
  },
  {
    "id": 11,
    "iataCode": "AEY",
    "icaoCode": "BIAR",
    "name": "Akureyri",
    "fullName": "Akureyri Airport",
    "cityId": 11,
    "countryId": 3,
    "timeZoneName": "Greenwich Standard Time",
    "location": {
      "longitude": -18.072703,
      "latitude": 65.659994,
      "altitude": 6.0
    }
  },
  {
    "id": 12,
    "iataCode": "EGS",
    "icaoCode": "BIEG",
    "name": "Egilsstadir",
    "fullName": "Egilsstadir Airport",
    "cityId": 12,
    "countryId": 3,
    "timeZoneName": "Greenwich Standard Time",
    "location": {
      "longitude": -14.401389,
      "latitude": 65.283333,
      "altitude": 76.0
    }
  },
  {
    "id": 13,
    "iataCode": "HFN",
    "icaoCode": "BIHN",
    "name": "Hornafjordur",
    "fullName": "Hornafjordur Airport",
    "cityId": 13,
    "countryId": 3,
    "timeZoneName": "Greenwich Standard Time",
    "location": {
      "longitude": -15.227222,
      "latitude": 64.295556,
      "altitude": 24.0
    }
  },
  {
    "id": 14,
    "iataCode": "HZK",
    "icaoCode": "BIHU",
    "name": "Husavik",
    "fullName": "Husavik Airport",
    "cityId": 14,
    "countryId": 3,
    "timeZoneName": "Greenwich Standard Time",
    "location": {
      "longitude": -17.425978,
      "latitude": 65.952328,
      "altitude": 48.0
    }
  },
  {
    "id": 15,
    "iataCode": "IFJ",
    "icaoCode": "BIIS",
    "name": "Isafjordur",
    "fullName": "Isafjordur Airport",
    "cityId": 15,
    "countryId": 3,
    "timeZoneName": "Greenwich Standard Time",
    "location": {
      "longitude": -23.135278,
      "latitude": 66.058056,
      "altitude": 8.0
    }
  },
  {
    "id": 16,
    "iataCode": "KEF",
    "icaoCode": "BIKF",
    "name": "Keflavik International Airport",
    "fullName": "Keflavik International Airport Airport",
    "cityId": 16,
    "countryId": 3,
    "timeZoneName": "Greenwich Standard Time",
    "location": {
      "longitude": -22.605556,
      "latitude": 63.985,
      "altitude": 171.0
    }
  },
  {
    "id": 17,
    "iataCode": "PFJ",
    "icaoCode": "BIPA",
    "name": "Patreksfjordur",
    "fullName": "Patreksfjordur Airport",
    "cityId": 17,
    "countryId": 3,
    "timeZoneName": "Greenwich Standard Time",
    "location": {
      "longitude": -23.965,
      "latitude": 65.555833,
      "altitude": 11.0
    }
  },
  {
    "id": 18,
    "iataCode": "RKV",
    "icaoCode": "BIRK",
    "name": "Reykjavik",
    "fullName": "Reykjavik Airport",
    "cityId": 18,
    "countryId": 3,
    "timeZoneName": "Greenwich Standard Time",
    "location": {
      "longitude": -21.940556,
      "latitude": 64.13,
      "altitude": 48.0
    }
  },
  {
    "id": 19,
    "iataCode": "SIJ",
    "icaoCode": "BISI",
    "name": "Siglufjordur",
    "fullName": "Siglufjordur Airport",
    "cityId": 19,
    "countryId": 3,
    "timeZoneName": "Greenwich Standard Time",
    "location": {
      "longitude": -18.916667,
      "latitude": 66.133333,
      "altitude": 10.0
    }
  },
  {
    "id": 20,
    "iataCode": "VEY",
    "icaoCode": "BIVM",
    "name": "Vestmannaeyjar",
    "fullName": "Vestmannaeyjar Airport",
    "cityId": 20,
    "countryId": 3,
    "timeZoneName": "Greenwich Standard Time",
    "location": {
      "longitude": -20.278875,
      "latitude": 63.424303,
      "altitude": 326.0
    }
  },
  {
    "id": 21,
    "iataCode": "YAM",
    "icaoCode": "CYAM",
    "name": "Sault Ste Marie",
    "fullName": "Sault Ste Marie Airport",
    "cityId": 21,
    "countryId": 4,
    "timeZoneName": "Eastern Standard Time",
    "location": {
      "longitude": -84.509445,
      "latitude": 46.485001,
      "altitude": 630.0
    }
  },
  {
    "id": 22,
    "iataCode": "YAV",
    "icaoCode": "CYAV",
    "name": "Winnipeg St Andrews",
    "fullName": "Winnipeg St Andrews Airport",
    "cityId": 22,
    "countryId": 4,
    "timeZoneName": "Central Standard Time",
    "location": {
      "longitude": -97.0325,
      "latitude": 50.056389,
      "altitude": 760.0
    }
  },
  {
    "id": 23,
    "iataCode": "YAW",
    "icaoCode": "CYAW",
    "name": "Shearwater",
    "fullName": "Shearwater Airport",
    "cityId": 23,
    "countryId": 4,
    "timeZoneName": "Atlantic Standard Time",
    "location": {
      "longitude": -63.499444,
      "latitude": 44.639721,
      "altitude": 167.0
    }
  },
  {
    "id": 24,
    "iataCode": "YAY",
    "icaoCode": "CYAY",
    "name": "St Anthony",
    "fullName": "St Anthony Airport",
    "cityId": 24,
    "countryId": 4,
    "timeZoneName": "Newfoundland Standard Time",
    "location": {
      "longitude": -56.083056,
      "latitude": 51.391944,
      "altitude": 108.0
    }
  },
  {
    "id": 25,
    "iataCode": "YAZ",
    "icaoCode": "CYAZ",
    "name": "Tofino",
    "fullName": "Tofino Airport",
    "cityId": 25,
    "countryId": 4,
    "timeZoneName": "Pacific Standard Time",
    "location": {
      "longitude": -125.7725,
      "latitude": 49.082222,
      "altitude": 80.0
    }
  },
  {
    "id": 26,
    "iataCode": "YBB",
    "icaoCode": "CYBB",
    "name": "Kugaaruk",
    "fullName": "Kugaaruk Airport",
    "cityId": 26,
    "countryId": 4,
    "timeZoneName": "Mountain Standard Time",
    "location": {
      "longitude": -89.808056,
      "latitude": 68.534444,
      "altitude": 56.0
    }
  },
  {
    "id": 27,
    "iataCode": "YBC",
    "icaoCode": "CYBC",
    "name": "Baie Comeau",
    "fullName": "Baie Comeau Airport",
    "cityId": 27,
    "countryId": 4,
    "timeZoneName": "Eastern Standard Time",
    "location": {
      "longitude": -68.204444,
      "latitude": 49.1325,
      "altitude": 71.0
    }
  },
  {
    "id": 28,
    "iataCode": "YBG",
    "icaoCode": "CYBG",
    "name": "Bagotville",
    "fullName": "Bagotville Airport",
    "cityId": 28,
    "countryId": 4,
    "timeZoneName": "Eastern Standard Time",
    "location": {
      "longitude": -70.996391,
      "latitude": 48.330555,
      "altitude": 522.0
    }
  },
  {
    "id": 29,
    "iataCode": "YBK",
    "icaoCode": "CYBK",
    "name": "Baker Lake",
    "fullName": "Baker Lake Airport",
    "cityId": 29,
    "countryId": 4,
    "timeZoneName": "Central Standard Time",
    "location": {
      "longitude": -96.077778,
      "latitude": 64.298889,
      "altitude": 59.0
    }
  },
  {
    "id": 30,
    "iataCode": "YBL",
    "icaoCode": "CYBL",
    "name": "Campbell River",
    "fullName": "Campbell River Airport",
    "cityId": 30,
    "countryId": 4,
    "timeZoneName": "Pacific Standard Time",
    "location": {
      "longitude": -125.270833,
      "latitude": 49.950832,
      "altitude": 346.0
    }
  },
  {
    "id": 31,
    "iataCode": "YBR",
    "icaoCode": "CYBR",
    "name": "Brandon Muni",
    "fullName": "Brandon Muni Airport",
    "cityId": 31,
    "countryId": 4,
    "timeZoneName": "Central Standard Time",
    "location": {
      "longitude": -99.951944,
      "latitude": 49.91,
      "altitude": 1343.0
    }
  },
  {
    "id": 32,
    "iataCode": "YCB",
    "icaoCode": "CYCB",
    "name": "Cambridge Bay",
    "fullName": "Cambridge Bay Airport",
    "cityId": 32,
    "countryId": 4,
    "timeZoneName": "Mountain Standard Time",
    "location": {
      "longitude": -105.138333,
      "latitude": 69.108055,
      "altitude": 90.0
    }
  },
  {
    "id": 33,
    "iataCode": "YCD",
    "icaoCode": "CYCD",
    "name": "Nanaimo",
    "fullName": "Nanaimo Airport",
    "cityId": 33,
    "countryId": 4,
    "timeZoneName": "Pacific Standard Time",
    "location": {
      "longitude": -123.870167,
      "latitude": 49.052333,
      "altitude": 93.0
    }
  },
  {
    "id": 34,
    "iataCode": "YCG",
    "icaoCode": "CYCG",
    "name": "Castlegar",
    "fullName": "Castlegar Airport",
    "cityId": 34,
    "countryId": 4,
    "timeZoneName": "Pacific Standard Time",
    "location": {
      "longitude": -117.6325,
      "latitude": 49.296389,
      "altitude": 1624.0
    }
  },
  {
    "id": 35,
    "iataCode": "YCH",
    "icaoCode": "CYCH",
    "name": "Miramichi",
    "fullName": "Miramichi Airport",
    "cityId": 35,
    "countryId": 4,
    "timeZoneName": "Atlantic Standard Time",
    "location": {
      "longitude": -65.449167,
      "latitude": 47.007778,
      "altitude": 108.0
    }
  },
  {
    "id": 36,
    "iataCode": "YCL",
    "icaoCode": "CYCL",
    "name": "Charlo",
    "fullName": "Charlo Airport",
    "cityId": 36,
    "countryId": 4,
    "timeZoneName": "Atlantic Standard Time",
    "location": {
      "longitude": -66.330278,
      "latitude": 47.990833,
      "altitude": 132.0
    }
  },
  {
    "id": 37,
    "iataCode": "YCO",
    "icaoCode": "CYCO",
    "name": "Kugluktuk",
    "fullName": "Kugluktuk Airport",
    "cityId": 37,
    "countryId": 4,
    "timeZoneName": "Mountain Standard Time",
    "location": {
      "longitude": -115.143889,
      "latitude": 67.816667,
      "altitude": 74.0
    }
  },
  {
    "id": 38,
    "iataCode": "YCT",
    "icaoCode": "CYCT",
    "name": "Coronation",
    "fullName": "Coronation Airport",
    "cityId": 38,
    "countryId": 4,
    "timeZoneName": "Mountain Standard Time",
    "location": {
      "longitude": -111.445278,
      "latitude": 52.075001,
      "altitude": 2595.0
    }
  },
  {
    "id": 39,
    "iataCode": "YCW",
    "icaoCode": "CYCW",
    "name": "Chilliwack",
    "fullName": "Chilliwack Airport",
    "cityId": 39,
    "countryId": 4,
    "timeZoneName": "Pacific Standard Time",
    "location": {
      "longitude": -121.93889,
      "latitude": 49.152779,
      "altitude": 32.0
    }
  },
  {
    "id": 40,
    "iataCode": "YCY",
    "icaoCode": "CYCY",
    "name": "Clyde River",
    "fullName": "Clyde River Airport",
    "cityId": 40,
    "countryId": 4,
    "timeZoneName": "Eastern Standard Time",
    "location": {
      "longitude": -68.516667,
      "latitude": 70.486111,
      "altitude": 87.0
    }
  },
  {
    "id": 41,
    "iataCode": "YZS",
    "icaoCode": "CYCZ",
    "name": "Fairmont Hot Springs",
    "fullName": "Fairmont Hot Springs Airport",
    "cityId": 41,
    "countryId": 4,
    "timeZoneName": "Eastern Standard Time",
    "location": {
      "longitude": -83.359444,
      "latitude": 64.193333,
      "altitude": 2661.0
    }
  },
  {
    "id": 42,
    "iataCode": "YDA",
    "icaoCode": "CYDA",
    "name": "Dawson City",
    "fullName": "Dawson City Airport",
    "cityId": 42,
    "countryId": 4,
    "timeZoneName": "Pacific Standard Time",
    "location": {
      "longitude": -139.127778,
      "latitude": 64.043056,
      "altitude": 1215.0
    }
  },
  {
    "id": 43,
    "iataCode": "YDB",
    "icaoCode": "CYDB",
    "name": "Burwash",
    "fullName": "Burwash Airport",
    "cityId": 43,
    "countryId": 4,
    "timeZoneName": "Pacific Standard Time",
    "location": {
      "longitude": -139.040556,
      "latitude": 61.371111,
      "altitude": 2647.0
    }
  },
  {
    "id": 44,
    "iataCode": "YDC",
    "icaoCode": "CYDC",
    "name": "Princeton",
    "fullName": "Princeton Airport",
    "cityId": 44,
    "countryId": 4,
    "timeZoneName": "Pacific Standard Time",
    "location": {
      "longitude": -120.511389,
      "latitude": 49.468056,
      "altitude": 2298.0
    }
  },
  {
    "id": 45,
    "iataCode": "YDF",
    "icaoCode": "CYDF",
    "name": "Deer Lake",
    "fullName": "Deer Lake Airport",
    "cityId": 45,
    "countryId": 4,
    "timeZoneName": "Newfoundland Standard Time",
    "location": {
      "longitude": -57.391388,
      "latitude": 49.210833,
      "altitude": 72.0
    }
  },
  {
    "id": 46,
    "iataCode": "YDL",
    "icaoCode": "CYDL",
    "name": "Dease Lake",
    "fullName": "Dease Lake Airport",
    "cityId": 46,
    "countryId": 4,
    "timeZoneName": "Pacific Standard Time",
    "location": {
      "longitude": -130.032222,
      "latitude": 58.422222,
      "altitude": 2600.0
    }
  },
  {
    "id": 47,
    "iataCode": "YDN",
    "icaoCode": "CYDN",
    "name": "Dauphin Barker",
    "fullName": "Dauphin Barker Airport",
    "cityId": 47,
    "countryId": 4,
    "timeZoneName": "Central Standard Time",
    "location": {
      "longitude": -100.0525,
      "latitude": 51.100834,
      "altitude": 999.0
    }
  },
  {
    "id": 48,
    "iataCode": "YDQ",
    "icaoCode": "CYDQ",
    "name": "Dawson Creek",
    "fullName": "Dawson Creek Airport",
    "cityId": 48,
    "countryId": 4,
    "timeZoneName": "Mountain Standard Time",
    "location": {
      "longitude": -120.183,
      "latitude": 55.742333,
      "altitude": 2148.0
    }
  },
  {
    "id": 49,
    "iataCode": "YEG",
    "icaoCode": "CYEG",
    "name": "Edmonton Intl",
    "fullName": "Edmonton Intl Airport",
    "cityId": 49,
    "countryId": 4,
    "timeZoneName": "Mountain Standard Time",
    "location": {
      "longitude": -113.579722,
      "latitude": 53.309723,
      "altitude": 2373.0
    }
  },
  {
    "id": 50,
    "iataCode": "YEK",
    "icaoCode": "CYEK",
    "name": "Arviat",
    "fullName": "Arviat Airport",
    "cityId": 50,
    "countryId": 4,
    "timeZoneName": "Central Standard Time",
    "location": {
      "longitude": -94.070833,
      "latitude": 61.094166,
      "altitude": 32.0
    }
  },
  {
    "id": 51,
    "iataCode": "YEN",
    "icaoCode": "CYEN",
    "name": "Estevan",
    "fullName": "Estevan Airport",
    "cityId": 51,
    "countryId": 4,
    "timeZoneName": "Central Standard Time",
    "location": {
      "longitude": -102.965833,
      "latitude": 49.210278,
      "altitude": 1905.0
    }
  },
  {
    "id": 52,
    "iataCode": "YET",
    "icaoCode": "CYET",
    "name": "Edson",
    "fullName": "Edson Airport",
    "cityId": 52,
    "countryId": 4,
    "timeZoneName": "Mountain Standard Time",
    "location": {
      "longitude": -116.465,
      "latitude": 53.578888,
      "altitude": 3041.0
    }
  },
  {
    "id": 53,
    "iataCode": "YEU",
    "icaoCode": "CYEU",
    "name": "Eureka",
    "fullName": "Eureka Airport",
    "cityId": 53,
    "countryId": 4,
    "timeZoneName": "Central Standard Time",
    "location": {
      "longitude": -85.814167,
      "latitude": 79.994722,
      "altitude": 256.0
    }
  },
  {
    "id": 54,
    "iataCode": "YEV",
    "icaoCode": "CYEV",
    "name": "Inuvik Mike Zubko",
    "fullName": "Inuvik Mike Zubko Airport",
    "cityId": 54,
    "countryId": 4,
    "timeZoneName": "Mountain Standard Time",
    "location": {
      "longitude": -133.482778,
      "latitude": 68.304167,
      "altitude": 224.0
    }
  },
  {
    "id": 55,
    "iataCode": "YFB",
    "icaoCode": "CYFB",
    "name": "Iqaluit",
    "fullName": "Iqaluit Airport",
    "cityId": 55,
    "countryId": 4,
    "timeZoneName": "Eastern Standard Time",
    "location": {
      "longitude": -68.555832,
      "latitude": 63.75639,
      "altitude": 110.0
    }
  },
  {
    "id": 56,
    "iataCode": "YFC",
    "icaoCode": "CYFC",
    "name": "Fredericton",
    "fullName": "Fredericton Airport",
    "cityId": 56,
    "countryId": 4,
    "timeZoneName": "Atlantic Standard Time",
    "location": {
      "longitude": -66.537222,
      "latitude": 45.868889,
      "altitude": 68.0
    }
  },
  {
    "id": 58,
    "iataCode": "YFO",
    "icaoCode": "CYFO",
    "name": "Flin Flon",
    "fullName": "Flin Flon Airport",
    "cityId": 57,
    "countryId": 4,
    "timeZoneName": "Central Standard Time",
    "location": {
      "longitude": -101.681667,
      "latitude": 54.678055,
      "altitude": 997.0
    }
  },
  {
    "id": 59,
    "iataCode": "YFR",
    "icaoCode": "CYFR",
    "name": "Fort Resolution",
    "fullName": "Fort Resolution Airport",
    "cityId": 58,
    "countryId": 4,
    "timeZoneName": "Mountain Standard Time",
    "location": {
      "longitude": -113.689722,
      "latitude": 61.180832,
      "altitude": 526.0
    }
  },
  {
    "id": 60,
    "iataCode": "YFS",
    "icaoCode": "CYFS",
    "name": "Fort Simpson",
    "fullName": "Fort Simpson Airport",
    "cityId": 59,
    "countryId": 4,
    "timeZoneName": "Mountain Standard Time",
    "location": {
      "longitude": -121.236525,
      "latitude": 61.760153,
      "altitude": 555.0
    }
  },
  {
    "id": 61,
    "iataCode": "YGK",
    "icaoCode": "CYGK",
    "name": "Kingston",
    "fullName": "Kingston Airport",
    "cityId": 60,
    "countryId": 4,
    "timeZoneName": "Eastern Standard Time",
    "location": {
      "longitude": -76.596944,
      "latitude": 44.225277,
      "altitude": 305.0
    }
  },
  {
    "id": 62,
    "iataCode": "YGL",
    "icaoCode": "CYGL",
    "name": "La Grande Riviere",
    "fullName": "La Grande Riviere Airport",
    "cityId": 61,
    "countryId": 4,
    "timeZoneName": "Eastern Standard Time",
    "location": {
      "longitude": -77.704167,
      "latitude": 53.625278,
      "altitude": 639.0
    }
  },
  {
    "id": 63,
    "iataCode": "YGP",
    "icaoCode": "CYGP",
    "name": "Gaspe",
    "fullName": "Gaspe Airport",
    "cityId": 62,
    "countryId": 4,
    "timeZoneName": "Eastern Standard Time",
    "location": {
      "longitude": -64.478611,
      "latitude": 48.775278,
      "altitude": 108.0
    }
  },
  {
    "id": 64,
    "iataCode": "YGQ",
    "icaoCode": "CYGQ",
    "name": "Geraldton Greenstone Regional",
    "fullName": "Geraldton Greenstone Regional Airport",
    "cityId": 63,
    "countryId": 4,
    "timeZoneName": "Eastern Standard Time",
    "location": {
      "longitude": -86.939445,
      "latitude": 49.778332,
      "altitude": 1144.0
    }
  },
  {
    "id": 65,
    "iataCode": "YGR",
    "icaoCode": "CYGR",
    "name": "Iles De La Madeleine",
    "fullName": "Iles De La Madeleine Airport",
    "cityId": 64,
    "countryId": 4,
    "timeZoneName": "Eastern Standard Time",
    "location": {
      "longitude": -61.778056,
      "latitude": 47.424721,
      "altitude": 35.0
    }
  },
  {
    "id": 66,
    "iataCode": "YHB",
    "icaoCode": "CYHB",
    "name": "Hudson Bay",
    "fullName": "Hudson Bay Airport",
    "cityId": 65,
    "countryId": 4,
    "timeZoneName": "Central Standard Time",
    "location": {
      "longitude": -102.31139,
      "latitude": 52.816666,
      "altitude": 1175.0
    }
  },
  {
    "id": 67,
    "iataCode": "YHD",
    "icaoCode": "CYHD",
    "name": "Dryden Rgnl",
    "fullName": "Dryden Rgnl Airport",
    "cityId": 66,
    "countryId": 4,
    "timeZoneName": "Central Standard Time",
    "location": {
      "longitude": -92.744167,
      "latitude": 49.831667,
      "altitude": 1354.0
    }
  },
  {
    "id": 68,
    "iataCode": "YHI",
    "icaoCode": "CYHI",
    "name": "Ulukhaktok Holman",
    "fullName": "Ulukhaktok Holman Airport",
    "cityId": 67,
    "countryId": 4,
    "timeZoneName": "Mountain Standard Time",
    "location": {
      "longitude": -117.806111,
      "latitude": 70.762778,
      "altitude": 117.0
    }
  },
  {
    "id": 69,
    "iataCode": "YHK",
    "icaoCode": "CYHK",
    "name": "Gjoa Haven",
    "fullName": "Gjoa Haven Airport",
    "cityId": 68,
    "countryId": 4,
    "timeZoneName": "Mountain Standard Time",
    "location": {
      "longitude": -95.849722,
      "latitude": 68.635556,
      "altitude": 152.0
    }
  },
  {
    "id": 70,
    "iataCode": "YHM",
    "icaoCode": "CYHM",
    "name": "Hamilton",
    "fullName": "Hamilton Airport",
    "cityId": 69,
    "countryId": 4,
    "timeZoneName": "Eastern Standard Time",
    "location": {
      "longitude": -79.935,
      "latitude": 43.173611,
      "altitude": 780.0
    }
  },
  {
    "id": 71,
    "iataCode": "YHU",
    "icaoCode": "CYHU",
    "name": "St Hubert",
    "fullName": "St Hubert Airport",
    "cityId": 70,
    "countryId": 4,
    "timeZoneName": "Eastern Standard Time",
    "location": {
      "longitude": -73.416944,
      "latitude": 45.5175,
      "altitude": 90.0
    }
  },
  {
    "id": 72,
    "iataCode": "YHY",
    "icaoCode": "CYHY",
    "name": "Hay River",
    "fullName": "Hay River Airport",
    "cityId": 71,
    "countryId": 4,
    "timeZoneName": "Mountain Standard Time",
    "location": {
      "longitude": -115.782778,
      "latitude": 60.839722,
      "altitude": 543.0
    }
  },
  {
    "id": 73,
    "iataCode": "YHZ",
    "icaoCode": "CYHZ",
    "name": "Halifax Intl",
    "fullName": "Halifax Intl Airport",
    "cityId": 23,
    "countryId": 4,
    "timeZoneName": "Atlantic Standard Time",
    "location": {
      "longitude": -63.50861,
      "latitude": 44.880833,
      "altitude": 477.0
    }
  },
  {
    "id": 74,
    "iataCode": "YIB",
    "icaoCode": "CYIB",
    "name": "Atikokan Muni",
    "fullName": "Atikokan Muni Airport",
    "cityId": 72,
    "countryId": 4,
    "timeZoneName": "Eastern Standard Time",
    "location": {
      "longitude": -91.638611,
      "latitude": 48.773888,
      "altitude": 1408.0
    }
  },
  {
    "id": 75,
    "iataCode": "YIO",
    "icaoCode": "CYIO",
    "name": "Pond Inlet",
    "fullName": "Pond Inlet Airport",
    "cityId": 73,
    "countryId": 4,
    "timeZoneName": "Eastern Standard Time",
    "location": {
      "longitude": -77.966667,
      "latitude": 72.683334,
      "altitude": 181.0
    }
  },
  {
    "id": 76,
    "iataCode": "YJN",
    "icaoCode": "CYJN",
    "name": "St Jean",
    "fullName": "St Jean Airport",
    "cityId": 74,
    "countryId": 4,
    "timeZoneName": "Eastern Standard Time",
    "location": {
      "longitude": -73.281111,
      "latitude": 45.294445,
      "altitude": 136.0
    }
  },
  {
    "id": 77,
    "iataCode": "YJT",
    "icaoCode": "CYJT",
    "name": "Stephenville",
    "fullName": "Stephenville Airport",
    "cityId": 75,
    "countryId": 4,
    "timeZoneName": "Newfoundland Standard Time",
    "location": {
      "longitude": -58.549999,
      "latitude": 48.544167,
      "altitude": 80.0
    }
  },
  {
    "id": 78,
    "iataCode": "YKA",
    "icaoCode": "CYKA",
    "name": "Kamloops",
    "fullName": "Kamloops Airport",
    "cityId": 76,
    "countryId": 4,
    "timeZoneName": "Pacific Standard Time",
    "location": {
      "longitude": -120.444444,
      "latitude": 50.702222,
      "altitude": 1133.0
    }
  },
  {
    "id": 79,
    "iataCode": "YKF",
    "icaoCode": "CYKF",
    "name": "Waterloo",
    "fullName": "Waterloo Airport",
    "cityId": 77,
    "countryId": 4,
    "timeZoneName": "Eastern Standard Time",
    "location": {
      "longitude": -80.378611,
      "latitude": 43.460833,
      "altitude": 1054.0
    }
  },
  {
    "id": 80,
    "iataCode": "YKL",
    "icaoCode": "CYKL",
    "name": "Schefferville",
    "fullName": "Schefferville Airport",
    "cityId": 78,
    "countryId": 4,
    "timeZoneName": "Eastern Standard Time",
    "location": {
      "longitude": -66.805278,
      "latitude": 54.805278,
      "altitude": 1709.0
    }
  },
  {
    "id": 81,
    "iataCode": "YKY",
    "icaoCode": "CYKY",
    "name": "Kindersley",
    "fullName": "Kindersley Airport",
    "cityId": 79,
    "countryId": 4,
    "timeZoneName": "Central Standard Time",
    "location": {
      "longitude": -109.180833,
      "latitude": 51.5175,
      "altitude": 2277.0
    }
  },
  {
    "id": 82,
    "iataCode": "YKZ",
    "icaoCode": "CYKZ",
    "name": "Buttonville Muni",
    "fullName": "Buttonville Muni Airport",
    "cityId": 80,
    "countryId": 4,
    "timeZoneName": "Eastern Standard Time",
    "location": {
      "longitude": -79.37,
      "latitude": 43.862221,
      "altitude": 650.0
    }
  },
  {
    "id": 83,
    "iataCode": "YLD",
    "icaoCode": "CYLD",
    "name": "Chapleau",
    "fullName": "Chapleau Airport",
    "cityId": 81,
    "countryId": 4,
    "timeZoneName": "Eastern Standard Time",
    "location": {
      "longitude": -83.346667,
      "latitude": 47.82,
      "altitude": 1470.0
    }
  },
  {
    "id": 84,
    "iataCode": "YLJ",
    "icaoCode": "CYLJ",
    "name": "Meadow Lake",
    "fullName": "Meadow Lake Airport",
    "cityId": 82,
    "countryId": 4,
    "timeZoneName": "Central Standard Time",
    "location": {
      "longitude": -108.522778,
      "latitude": 54.125278,
      "altitude": 1576.0
    }
  },
  {
    "id": 85,
    "iataCode": "YLL",
    "icaoCode": "CYLL",
    "name": "Lloydminster",
    "fullName": "Lloydminster Airport",
    "cityId": 83,
    "countryId": 4,
    "timeZoneName": "Mountain Standard Time",
    "location": {
      "longitude": -110.0725,
      "latitude": 53.309166,
      "altitude": 2193.0
    }
  },
  {
    "id": 86,
    "iataCode": "YLT",
    "icaoCode": "CYLT",
    "name": "Alert",
    "fullName": "Alert Airport",
    "cityId": 84,
    "countryId": 4,
    "timeZoneName": "Eastern Standard Time",
    "location": {
      "longitude": -62.280556,
      "latitude": 82.517778,
      "altitude": 100.0
    }
  },
  {
    "id": 87,
    "iataCode": "YLW",
    "icaoCode": "CYLW",
    "name": "Kelowna",
    "fullName": "Kelowna Airport",
    "cityId": 85,
    "countryId": 4,
    "timeZoneName": "Pacific Standard Time",
    "location": {
      "longitude": -119.377778,
      "latitude": 49.956112,
      "altitude": 1409.0
    }
  },
  {
    "id": 88,
    "iataCode": "YMA",
    "icaoCode": "CYMA",
    "name": "Mayo",
    "fullName": "Mayo Airport",
    "cityId": 86,
    "countryId": 4,
    "timeZoneName": "Pacific Standard Time",
    "location": {
      "longitude": -135.868333,
      "latitude": 63.616389,
      "altitude": 1653.0
    }
  },
  {
    "id": 89,
    "iataCode": "YMJ",
    "icaoCode": "CYMJ",
    "name": "Moose Jaw Air Vice Marshal C M Mcewen",
    "fullName": "Moose Jaw Air Vice Marshal C M Mcewen Airport",
    "cityId": 87,
    "countryId": 4,
    "timeZoneName": "Central Standard Time",
    "location": {
      "longitude": -105.559167,
      "latitude": 50.330278,
      "altitude": 1892.0
    }
  },
  {
    "id": 90,
    "iataCode": "YMM",
    "icaoCode": "CYMM",
    "name": "Fort Mcmurray",
    "fullName": "Fort Mcmurray Airport",
    "cityId": 88,
    "countryId": 4,
    "timeZoneName": "Mountain Standard Time",
    "location": {
      "longitude": -111.221944,
      "latitude": 56.653333,
      "altitude": 1211.0
    }
  },
  {
    "id": 91,
    "iataCode": "YMO",
    "icaoCode": "CYMO",
    "name": "Moosonee",
    "fullName": "Moosonee Airport",
    "cityId": 89,
    "countryId": 4,
    "timeZoneName": "Eastern Standard Time",
    "location": {
      "longitude": -80.607778,
      "latitude": 51.291111,
      "altitude": 30.0
    }
  },
  {
    "id": 92,
    "iataCode": "YMW",
    "icaoCode": "CYMW",
    "name": "Maniwaki",
    "fullName": "Maniwaki Airport",
    "cityId": 90,
    "countryId": 4,
    "timeZoneName": "Eastern Standard Time",
    "location": {
      "longitude": -75.990556,
      "latitude": 46.272778,
      "altitude": 656.0
    }
  },
  {
    "id": 93,
    "iataCode": "YMX",
    "icaoCode": "CYMX",
    "name": "Montreal Intl Mirabel",
    "fullName": "Montreal Intl Mirabel Airport",
    "cityId": 70,
    "countryId": 4,
    "timeZoneName": "Eastern Standard Time",
    "location": {
      "longitude": -74.005278,
      "latitude": 45.681944,
      "altitude": 270.0
    }
  },
  {
    "id": 94,
    "iataCode": "YNA",
    "icaoCode": "CYNA",
    "name": "Natashquan",
    "fullName": "Natashquan Airport",
    "cityId": 91,
    "countryId": 4,
    "timeZoneName": "Eastern Standard Time",
    "location": {
      "longitude": -61.789167,
      "latitude": 50.19,
      "altitude": 39.0
    }
  },
  {
    "id": 95,
    "iataCode": "YND",
    "icaoCode": "CYND",
    "name": "Gatineau",
    "fullName": "Gatineau Airport",
    "cityId": 92,
    "countryId": 4,
    "timeZoneName": "Eastern Standard Time",
    "location": {
      "longitude": -75.563589,
      "latitude": 45.521694,
      "altitude": 211.0
    }
  },
  {
    "id": 96,
    "iataCode": "YNM",
    "icaoCode": "CYNM",
    "name": "Matagami",
    "fullName": "Matagami Airport",
    "cityId": 93,
    "countryId": 4,
    "timeZoneName": "Eastern Standard Time",
    "location": {
      "longitude": -77.802778,
      "latitude": 49.761667,
      "altitude": 918.0
    }
  },
  {
    "id": 97,
    "iataCode": "YOC",
    "icaoCode": "CYOC",
    "name": "Old Crow",
    "fullName": "Old Crow Airport",
    "cityId": 94,
    "countryId": 4,
    "timeZoneName": "Pacific Standard Time",
    "location": {
      "longitude": -139.839167,
      "latitude": 67.570556,
      "altitude": 824.0
    }
  },
  {
    "id": 98,
    "iataCode": "YOD",
    "icaoCode": "CYOD",
    "name": "Cold Lake",
    "fullName": "Cold Lake Airport",
    "cityId": 95,
    "countryId": 4,
    "timeZoneName": "Mountain Standard Time",
    "location": {
      "longitude": -110.279444,
      "latitude": 54.404999,
      "altitude": 1775.0
    }
  },
  {
    "id": 99,
    "iataCode": "YOJ",
    "icaoCode": "CYOJ",
    "name": "High Level",
    "fullName": "High Level Airport",
    "cityId": 96,
    "countryId": 4,
    "timeZoneName": "Mountain Standard Time",
    "location": {
      "longitude": -117.164722,
      "latitude": 58.621389,
      "altitude": 1110.0
    }
  },
  {
    "id": 100,
    "iataCode": "YOW",
    "icaoCode": "CYOW",
    "name": "Ottawa Macdonald Cartier Intl",
    "fullName": "Ottawa Macdonald Cartier Intl Airport",
    "cityId": 97,
    "countryId": 4,
    "timeZoneName": "Eastern Standard Time",
    "location": {
      "longitude": -75.669167,
      "latitude": 45.3225,
      "altitude": 374.0
    }
  },
  {
    "id": 101,
    "iataCode": "YPA",
    "icaoCode": "CYPA",
    "name": "Prince Albert Glass Field",
    "fullName": "Prince Albert Glass Field Airport",
    "cityId": 98,
    "countryId": 4,
    "timeZoneName": "Central Standard Time",
    "location": {
      "longitude": -105.672778,
      "latitude": 53.214167,
      "altitude": 1405.0
    }
  },
  {
    "id": 102,
    "iataCode": "YPE",
    "icaoCode": "CYPE",
    "name": "Peace River",
    "fullName": "Peace River Airport",
    "cityId": 99,
    "countryId": 4,
    "timeZoneName": "Mountain Standard Time",
    "location": {
      "longitude": -117.447222,
      "latitude": 56.226944,
      "altitude": 1873.0
    }
  },
  {
    "id": 103,
    "iataCode": "YPG",
    "icaoCode": "CYPG",
    "name": "Southport",
    "fullName": "Southport Airport",
    "cityId": 100,
    "countryId": 4,
    "timeZoneName": "Central Standard Time",
    "location": {
      "longitude": -98.273889,
      "latitude": 49.903056,
      "altitude": 885.0
    }
  },
  {
    "id": 105,
    "iataCode": "YPL",
    "icaoCode": "CYPL",
    "name": "Pickle Lake",
    "fullName": "Pickle Lake Airport",
    "cityId": 101,
    "countryId": 4,
    "timeZoneName": "Eastern Standard Time",
    "location": {
      "longitude": -90.214167,
      "latitude": 51.446388,
      "altitude": 1267.0
    }
  },
  {
    "id": 106,
    "iataCode": "YPN",
    "icaoCode": "CYPN",
    "name": "Port Menier",
    "fullName": "Port Menier Airport",
    "cityId": 102,
    "countryId": 4,
    "timeZoneName": "Eastern Standard Time",
    "location": {
      "longitude": -64.288611,
      "latitude": 49.836389,
      "altitude": 167.0
    }
  },
  {
    "id": 107,
    "iataCode": "YPQ",
    "icaoCode": "CYPQ",
    "name": "Peterborough",
    "fullName": "Peterborough Airport",
    "cityId": 103,
    "countryId": 4,
    "timeZoneName": "Eastern Standard Time",
    "location": {
      "longitude": -78.363333,
      "latitude": 44.23,
      "altitude": 628.0
    }
  },
  {
    "id": 108,
    "iataCode": "YPR",
    "icaoCode": "CYPR",
    "name": "Prince Rupert",
    "fullName": "Prince Rupert Airport",
    "cityId": 104,
    "countryId": 4,
    "timeZoneName": "Pacific Standard Time",
    "location": {
      "longitude": -130.444722,
      "latitude": 54.28611,
      "altitude": 116.0
    }
  },
  {
    "id": 109,
    "iataCode": "YPY",
    "icaoCode": "CYPY",
    "name": "Fort Chipewyan",
    "fullName": "Fort Chipewyan Airport",
    "cityId": 105,
    "countryId": 4,
    "timeZoneName": "Mountain Standard Time",
    "location": {
      "longitude": -111.117222,
      "latitude": 58.767223,
      "altitude": 761.0
    }
  },
  {
    "id": 110,
    "iataCode": "YQA",
    "icaoCode": "CYQA",
    "name": "Muskoka",
    "fullName": "Muskoka Airport",
    "cityId": 106,
    "countryId": 4,
    "timeZoneName": "Eastern Standard Time",
    "location": {
      "longitude": -79.303333,
      "latitude": 44.974722,
      "altitude": 925.0
    }
  },
  {
    "id": 111,
    "iataCode": "YQB",
    "icaoCode": "CYQB",
    "name": "Quebec Jean Lesage Intl",
    "fullName": "Quebec Jean Lesage Intl Airport",
    "cityId": 107,
    "countryId": 4,
    "timeZoneName": "Eastern Standard Time",
    "location": {
      "longitude": -71.393333,
      "latitude": 46.791111,
      "altitude": 244.0
    }
  },
  {
    "id": 112,
    "iataCode": "YQF",
    "icaoCode": "CYQF",
    "name": "Red Deer Regional",
    "fullName": "Red Deer Regional Airport",
    "cityId": 108,
    "countryId": 4,
    "timeZoneName": "Mountain Standard Time",
    "location": {
      "longitude": -113.894444,
      "latitude": 52.182222,
      "altitude": 2968.0
    }
  },
  {
    "id": 113,
    "iataCode": "YQG",
    "icaoCode": "CYQG",
    "name": "Windsor",
    "fullName": "Windsor Airport",
    "cityId": 109,
    "countryId": 4,
    "timeZoneName": "Eastern Standard Time",
    "location": {
      "longitude": -82.955556,
      "latitude": 42.275556,
      "altitude": 622.0
    }
  },
  {
    "id": 114,
    "iataCode": "YQH",
    "icaoCode": "CYQH",
    "name": "Watson Lake",
    "fullName": "Watson Lake Airport",
    "cityId": 110,
    "countryId": 4,
    "timeZoneName": "Pacific Standard Time",
    "location": {
      "longitude": -128.8225,
      "latitude": 60.116389,
      "altitude": 2255.0
    }
  },
  {
    "id": 115,
    "iataCode": "YQK",
    "icaoCode": "CYQK",
    "name": "Kenora",
    "fullName": "Kenora Airport",
    "cityId": 111,
    "countryId": 4,
    "timeZoneName": "Central Standard Time",
    "location": {
      "longitude": -94.363056,
      "latitude": 49.788334,
      "altitude": 1332.0
    }
  },
  {
    "id": 116,
    "iataCode": "YQL",
    "icaoCode": "CYQL",
    "name": "Lethbridge",
    "fullName": "Lethbridge Airport",
    "cityId": 112,
    "countryId": 4,
    "timeZoneName": "Mountain Standard Time",
    "location": {
      "longitude": -112.799722,
      "latitude": 49.630278,
      "altitude": 3047.0
    }
  },
  {
    "id": 117,
    "iataCode": "YQM",
    "icaoCode": "CYQM",
    "name": "Greater Moncton Intl",
    "fullName": "Greater Moncton Intl Airport",
    "cityId": 113,
    "countryId": 4,
    "timeZoneName": "Atlantic Standard Time",
    "location": {
      "longitude": -64.678611,
      "latitude": 46.112221,
      "altitude": 232.0
    }
  },
  {
    "id": 119,
    "iataCode": "YQQ",
    "icaoCode": "CYQQ",
    "name": "Comox",
    "fullName": "Comox Airport",
    "cityId": 114,
    "countryId": 4,
    "timeZoneName": "Pacific Standard Time",
    "location": {
      "longitude": -124.886667,
      "latitude": 49.710833,
      "altitude": 84.0
    }
  },
  {
    "id": 120,
    "iataCode": "YQR",
    "icaoCode": "CYQR",
    "name": "Regina Intl",
    "fullName": "Regina Intl Airport",
    "cityId": 115,
    "countryId": 4,
    "timeZoneName": "Central Standard Time",
    "location": {
      "longitude": -104.665833,
      "latitude": 50.431944,
      "altitude": 1894.0
    }
  },
  {
    "id": 121,
    "iataCode": "YQT",
    "icaoCode": "CYQT",
    "name": "Thunder Bay",
    "fullName": "Thunder Bay Airport",
    "cityId": 116,
    "countryId": 4,
    "timeZoneName": "Eastern Standard Time",
    "location": {
      "longitude": -89.323889,
      "latitude": 48.371944,
      "altitude": 653.0
    }
  },
  {
    "id": 122,
    "iataCode": "YQU",
    "icaoCode": "CYQU",
    "name": "Grande Prairie",
    "fullName": "Grande Prairie Airport",
    "cityId": 117,
    "countryId": 4,
    "timeZoneName": "Mountain Standard Time",
    "location": {
      "longitude": -118.885,
      "latitude": 55.179722,
      "altitude": 2195.0
    }
  },
  {
    "id": 123,
    "iataCode": "YQV",
    "icaoCode": "CYQV",
    "name": "Yorkton Muni",
    "fullName": "Yorkton Muni Airport",
    "cityId": 118,
    "countryId": 4,
    "timeZoneName": "Central Standard Time",
    "location": {
      "longitude": -102.461667,
      "latitude": 51.264721,
      "altitude": 1635.0
    }
  },
  {
    "id": 124,
    "iataCode": "YQW",
    "icaoCode": "CYQW",
    "name": "North Battleford",
    "fullName": "North Battleford Airport",
    "cityId": 119,
    "countryId": 4,
    "timeZoneName": "Central Standard Time",
    "location": {
      "longitude": -108.24361,
      "latitude": 52.769167,
      "altitude": 1799.0
    }
  },
  {
    "id": 125,
    "iataCode": "YQX",
    "icaoCode": "CYQX",
    "name": "Gander Intl",
    "fullName": "Gander Intl Airport",
    "cityId": 120,
    "countryId": 4,
    "timeZoneName": "Newfoundland Standard Time",
    "location": {
      "longitude": -54.568056,
      "latitude": 48.936944,
      "altitude": 496.0
    }
  },
  {
    "id": 126,
    "iataCode": "YQY",
    "icaoCode": "CYQY",
    "name": "Sydney",
    "fullName": "Sydney Airport",
    "cityId": 121,
    "countryId": 4,
    "timeZoneName": "Atlantic Standard Time",
    "location": {
      "longitude": -60.047779,
      "latitude": 46.161388,
      "altitude": 203.0
    }
  },
  {
    "id": 127,
    "iataCode": "YQZ",
    "icaoCode": "CYQZ",
    "name": "Quesnel",
    "fullName": "Quesnel Airport",
    "cityId": 122,
    "countryId": 4,
    "timeZoneName": "Pacific Standard Time",
    "location": {
      "longitude": -122.510278,
      "latitude": 53.026112,
      "altitude": 1789.0
    }
  },
  {
    "id": 128,
    "iataCode": "YRB",
    "icaoCode": "CYRB",
    "name": "Resolute Bay",
    "fullName": "Resolute Bay Airport",
    "cityId": 123,
    "countryId": 4,
    "timeZoneName": "Central Standard Time",
    "location": {
      "longitude": -94.969444,
      "latitude": 74.716944,
      "altitude": 215.0
    }
  },
  {
    "id": 129,
    "iataCode": "YRI",
    "icaoCode": "CYRI",
    "name": "Riviere Du Loup",
    "fullName": "Riviere Du Loup Airport",
    "cityId": 124,
    "countryId": 4,
    "timeZoneName": "Eastern Standard Time",
    "location": {
      "longitude": -69.584722,
      "latitude": 47.764444,
      "altitude": 427.0
    }
  },
  {
    "id": 130,
    "iataCode": "YRJ",
    "icaoCode": "CYRJ",
    "name": "Roberval",
    "fullName": "Roberval Airport",
    "cityId": 125,
    "countryId": 4,
    "timeZoneName": "Eastern Standard Time",
    "location": {
      "longitude": -72.265556,
      "latitude": 48.52,
      "altitude": 586.0
    }
  },
  {
    "id": 131,
    "iataCode": "YRM",
    "icaoCode": "CYRM",
    "name": "Rocky Mountain House",
    "fullName": "Rocky Mountain House Airport",
    "cityId": 126,
    "countryId": 4,
    "timeZoneName": "Mountain Standard Time",
    "location": {
      "longitude": -114.904167,
      "latitude": 52.429722,
      "altitude": 3244.0
    }
  },
  {
    "id": 132,
    "iataCode": "YRT",
    "icaoCode": "CYRT",
    "name": "Rankin Inlet",
    "fullName": "Rankin Inlet Airport",
    "cityId": 127,
    "countryId": 4,
    "timeZoneName": "Central Standard Time",
    "location": {
      "longitude": -92.115833,
      "latitude": 62.81139,
      "altitude": 94.0
    }
  },
  {
    "id": 133,
    "iataCode": "YSB",
    "icaoCode": "CYSB",
    "name": "Sudbury",
    "fullName": "Sudbury Airport",
    "cityId": 128,
    "countryId": 4,
    "timeZoneName": "Eastern Standard Time",
    "location": {
      "longitude": -80.798889,
      "latitude": 46.625,
      "altitude": 1141.0
    }
  },
  {
    "id": 134,
    "iataCode": "YSC",
    "icaoCode": "CYSC",
    "name": "Sherbrooke",
    "fullName": "Sherbrooke Airport",
    "cityId": 129,
    "countryId": 4,
    "timeZoneName": "Eastern Standard Time",
    "location": {
      "longitude": -71.691389,
      "latitude": 45.438611,
      "altitude": 792.0
    }
  },
  {
    "id": 135,
    "iataCode": "YSJ",
    "icaoCode": "CYSJ",
    "name": "Saint John",
    "fullName": "Saint John Airport",
    "cityId": 130,
    "countryId": 4,
    "timeZoneName": "Atlantic Standard Time",
    "location": {
      "longitude": -65.890278,
      "latitude": 45.316111,
      "altitude": 357.0
    }
  },
  {
    "id": 136,
    "iataCode": "YSM",
    "icaoCode": "CYSM",
    "name": "Fort Smith",
    "fullName": "Fort Smith Airport",
    "cityId": 131,
    "countryId": 4,
    "timeZoneName": "Mountain Standard Time",
    "location": {
      "longitude": -111.961944,
      "latitude": 60.020278,
      "altitude": 671.0
    }
  },
  {
    "id": 137,
    "iataCode": "YSR",
    "icaoCode": "CYSR",
    "name": "Nanisivik",
    "fullName": "Nanisivik Airport",
    "cityId": 132,
    "countryId": 4,
    "timeZoneName": "Eastern Standard Time",
    "location": {
      "longitude": -84.613611,
      "latitude": 72.982222,
      "altitude": 2106.0
    }
  },
  {
    "id": 138,
    "iataCode": "YSU",
    "icaoCode": "CYSU",
    "name": "Summerside",
    "fullName": "Summerside Airport",
    "cityId": 133,
    "countryId": 4,
    "timeZoneName": "Atlantic Standard Time",
    "location": {
      "longitude": -63.833611,
      "latitude": 46.440556,
      "altitude": 56.0
    }
  },
  {
    "id": 139,
    "iataCode": "YSY",
    "icaoCode": "CYSY",
    "name": "Sachs Harbour",
    "fullName": "Sachs Harbour Airport",
    "cityId": 134,
    "countryId": 4,
    "timeZoneName": "Mountain Standard Time",
    "location": {
      "longitude": -125.2425,
      "latitude": 71.993889,
      "altitude": 282.0
    }
  },
  {
    "id": 140,
    "iataCode": "YTE",
    "icaoCode": "CYTE",
    "name": "Cape Dorset",
    "fullName": "Cape Dorset Airport",
    "cityId": 135,
    "countryId": 4,
    "timeZoneName": "Eastern Standard Time",
    "location": {
      "longitude": -76.526667,
      "latitude": 64.23,
      "altitude": 164.0
    }
  },
  {
    "id": 141,
    "iataCode": "YTH",
    "icaoCode": "CYTH",
    "name": "Thompson",
    "fullName": "Thompson Airport",
    "cityId": 136,
    "countryId": 4,
    "timeZoneName": "Central Standard Time",
    "location": {
      "longitude": -97.864166,
      "latitude": 55.801111,
      "altitude": 729.0
    }
  },
  {
    "id": 142,
    "iataCode": "YTR",
    "icaoCode": "CYTR",
    "name": "Trenton",
    "fullName": "Trenton Airport",
    "cityId": 137,
    "countryId": 4,
    "timeZoneName": "Eastern Standard Time",
    "location": {
      "longitude": -77.528056,
      "latitude": 44.118889,
      "altitude": 283.0
    }
  },
  {
    "id": 143,
    "iataCode": "YTS",
    "icaoCode": "CYTS",
    "name": "Timmins",
    "fullName": "Timmins Airport",
    "cityId": 138,
    "countryId": 4,
    "timeZoneName": "Eastern Standard Time",
    "location": {
      "longitude": -81.376667,
      "latitude": 48.569721,
      "altitude": 967.0
    }
  },
  {
    "id": 144,
    "iataCode": "YTZ",
    "icaoCode": "CYTZ",
    "name": "City Centre",
    "fullName": "City Centre Airport",
    "cityId": 80,
    "countryId": 4,
    "timeZoneName": "Eastern Standard Time",
    "location": {
      "longitude": -79.396167,
      "latitude": 43.627499,
      "altitude": 251.0
    }
  },
  {
    "id": 145,
    "iataCode": "YUB",
    "icaoCode": "CYUB",
    "name": "Tuktoyaktuk",
    "fullName": "Tuktoyaktuk Airport",
    "cityId": 139,
    "countryId": 4,
    "timeZoneName": "Mountain Standard Time",
    "location": {
      "longitude": -133.026389,
      "latitude": 69.433334,
      "altitude": 15.0
    }
  },
  {
    "id": 146,
    "iataCode": "YUL",
    "icaoCode": "CYUL",
    "name": "Pierre Elliott Trudeau Intl",
    "fullName": "Pierre Elliott Trudeau Intl Airport",
    "cityId": 70,
    "countryId": 4,
    "timeZoneName": "Eastern Standard Time",
    "location": {
      "longitude": -73.740833,
      "latitude": 45.470556,
      "altitude": 118.0
    }
  },
  {
    "id": 147,
    "iataCode": "YUT",
    "icaoCode": "CYUT",
    "name": "Repulse Bay",
    "fullName": "Repulse Bay Airport",
    "cityId": 140,
    "countryId": 4,
    "timeZoneName": "Central Standard Time",
    "location": {
      "longitude": -86.224722,
      "latitude": 66.521389,
      "altitude": 80.0
    }
  },
  {
    "id": 148,
    "iataCode": "YUX",
    "icaoCode": "CYUX",
    "name": "Hall Beach",
    "fullName": "Hall Beach Airport",
    "cityId": 141,
    "countryId": 4,
    "timeZoneName": "Eastern Standard Time",
    "location": {
      "longitude": -81.243611,
      "latitude": 68.776111,
      "altitude": 27.0
    }
  },
  {
    "id": 149,
    "iataCode": "YUY",
    "icaoCode": "CYUY",
    "name": "Rouyn Noranda",
    "fullName": "Rouyn Noranda Airport",
    "cityId": 142,
    "countryId": 4,
    "timeZoneName": "Eastern Standard Time",
    "location": {
      "longitude": -78.835556,
      "latitude": 48.206111,
      "altitude": 988.0
    }
  },
  {
    "id": 150,
    "iataCode": "YVC",
    "icaoCode": "CYVC",
    "name": "La Ronge",
    "fullName": "La Ronge Airport",
    "cityId": 143,
    "countryId": 4,
    "timeZoneName": "Central Standard Time",
    "location": {
      "longitude": -105.261944,
      "latitude": 55.15139,
      "altitude": 1242.0
    }
  },
  {
    "id": 151,
    "iataCode": "YVG",
    "icaoCode": "CYVG",
    "name": "Vermilion",
    "fullName": "Vermilion Airport",
    "cityId": 144,
    "countryId": 4,
    "timeZoneName": "Mountain Standard Time",
    "location": {
      "longitude": -110.82389,
      "latitude": 53.355833,
      "altitude": 2025.0
    }
  },
  {
    "id": 152,
    "iataCode": "YVM",
    "icaoCode": "CYVM",
    "name": "Qikiqtarjuaq",
    "fullName": "Qikiqtarjuaq Airport",
    "cityId": 145,
    "countryId": 4,
    "timeZoneName": "Eastern Standard Time",
    "location": {
      "longitude": -64.031389,
      "latitude": 67.545833,
      "altitude": 21.0
    }
  },
  {
    "id": 153,
    "iataCode": "YVO",
    "icaoCode": "CYVO",
    "name": "Val D Or",
    "fullName": "Val D Or Airport",
    "cityId": 146,
    "countryId": 4,
    "timeZoneName": "Eastern Standard Time",
    "location": {
      "longitude": -77.782778,
      "latitude": 48.053333,
      "altitude": 1107.0
    }
  },
  {
    "id": 154,
    "iataCode": "YVP",
    "icaoCode": "CYVP",
    "name": "Kuujjuaq",
    "fullName": "Kuujjuaq Airport",
    "cityId": 147,
    "countryId": 4,
    "timeZoneName": "Eastern Standard Time",
    "location": {
      "longitude": -68.426944,
      "latitude": 58.096111,
      "altitude": 129.0
    }
  },
  {
    "id": 155,
    "iataCode": "YVQ",
    "icaoCode": "CYVQ",
    "name": "Norman Wells",
    "fullName": "Norman Wells Airport",
    "cityId": 148,
    "countryId": 4,
    "timeZoneName": "Mountain Standard Time",
    "location": {
      "longitude": -126.798219,
      "latitude": 65.281617,
      "altitude": 238.0
    }
  },
  {
    "id": 156,
    "iataCode": "YVR",
    "icaoCode": "CYVR",
    "name": "Vancouver Intl",
    "fullName": "Vancouver Intl Airport",
    "cityId": 149,
    "countryId": 4,
    "timeZoneName": "Pacific Standard Time",
    "location": {
      "longitude": -123.184444,
      "latitude": 49.193889,
      "altitude": 14.0
    }
  },
  {
    "id": 157,
    "iataCode": "YVT",
    "icaoCode": "CYVT",
    "name": "Buffalo Narrows",
    "fullName": "Buffalo Narrows Airport",
    "cityId": 150,
    "countryId": 4,
    "timeZoneName": "Central Standard Time",
    "location": {
      "longitude": -108.4175,
      "latitude": 55.841944,
      "altitude": 1444.0
    }
  },
  {
    "id": 158,
    "iataCode": "YVV",
    "icaoCode": "CYVV",
    "name": "Wiarton",
    "fullName": "Wiarton Airport",
    "cityId": 151,
    "countryId": 4,
    "timeZoneName": "Eastern Standard Time",
    "location": {
      "longitude": -81.107222,
      "latitude": 44.745834,
      "altitude": 729.0
    }
  },
  {
    "id": 159,
    "iataCode": "YWA",
    "icaoCode": "CYWA",
    "name": "Petawawa",
    "fullName": "Petawawa Airport",
    "cityId": 152,
    "countryId": 4,
    "timeZoneName": "Eastern Standard Time",
    "location": {
      "longitude": -77.319168,
      "latitude": 45.952221,
      "altitude": 427.0
    }
  },
  {
    "id": 160,
    "iataCode": "YWG",
    "icaoCode": "CYWG",
    "name": "Winnipeg Intl",
    "fullName": "Winnipeg Intl Airport",
    "cityId": 22,
    "countryId": 4,
    "timeZoneName": "Central Standard Time",
    "location": {
      "longitude": -97.239886,
      "latitude": 49.910036,
      "altitude": 783.0
    }
  },
  {
    "id": 161,
    "iataCode": "YWK",
    "icaoCode": "CYWK",
    "name": "Wabush",
    "fullName": "Wabush Airport",
    "cityId": 153,
    "countryId": 4,
    "timeZoneName": "Atlantic Standard Time",
    "location": {
      "longitude": -66.864444,
      "latitude": 52.921944,
      "altitude": 1808.0
    }
  },
  {
    "id": 162,
    "iataCode": "YWL",
    "icaoCode": "CYWL",
    "name": "Williams Lake",
    "fullName": "Williams Lake Airport",
    "cityId": 154,
    "countryId": 4,
    "timeZoneName": "Pacific Standard Time",
    "location": {
      "longitude": -122.054167,
      "latitude": 52.183056,
      "altitude": 3085.0
    }
  },
  {
    "id": 163,
    "iataCode": "YWY",
    "icaoCode": "CYWY",
    "name": "Wrigley",
    "fullName": "Wrigley Airport",
    "cityId": 155,
    "countryId": 4,
    "timeZoneName": "Mountain Standard Time",
    "location": {
      "longitude": -123.436667,
      "latitude": 63.209444,
      "altitude": 489.0
    }
  },
  {
    "id": 164,
    "iataCode": "YXC",
    "icaoCode": "CYXC",
    "name": "Canadian Rockies Intl",
    "fullName": "Canadian Rockies Intl Airport",
    "cityId": 156,
    "countryId": 4,
    "timeZoneName": "Mountain Standard Time",
    "location": {
      "longitude": -115.781944,
      "latitude": 49.612222,
      "altitude": 3084.0
    }
  },
  {
    "id": 165,
    "iataCode": "YXD",
    "icaoCode": "CYXD",
    "name": "Edmonton City Centre",
    "fullName": "Edmonton City Centre Airport",
    "cityId": 49,
    "countryId": 4,
    "timeZoneName": "Mountain Standard Time",
    "location": {
      "longitude": -113.520556,
      "latitude": 53.5725,
      "altitude": 2200.0
    }
  },
  {
    "id": 166,
    "iataCode": "YXE",
    "icaoCode": "CYXE",
    "name": "Saskatoon J G Diefenbaker Intl",
    "fullName": "Saskatoon J G Diefenbaker Intl Airport",
    "cityId": 157,
    "countryId": 4,
    "timeZoneName": "Central Standard Time",
    "location": {
      "longitude": -106.699722,
      "latitude": 52.170834,
      "altitude": 1653.0
    }
  },
  {
    "id": 167,
    "iataCode": "YXH",
    "icaoCode": "CYXH",
    "name": "Medicine Hat",
    "fullName": "Medicine Hat Airport",
    "cityId": 158,
    "countryId": 4,
    "timeZoneName": "Mountain Standard Time",
    "location": {
      "longitude": -110.720833,
      "latitude": 50.01889,
      "altitude": 2352.0
    }
  },
  {
    "id": 168,
    "iataCode": "YXJ",
    "icaoCode": "CYXJ",
    "name": "Fort St John",
    "fullName": "Fort St John Airport",
    "cityId": 159,
    "countryId": 4,
    "timeZoneName": "Mountain Standard Time",
    "location": {
      "longitude": -120.740278,
      "latitude": 56.238056,
      "altitude": 2280.0
    }
  },
  {
    "id": 169,
    "iataCode": "YXL",
    "icaoCode": "CYXL",
    "name": "Sioux Lookout",
    "fullName": "Sioux Lookout Airport",
    "cityId": 160,
    "countryId": 4,
    "timeZoneName": "Central Standard Time",
    "location": {
      "longitude": -91.905278,
      "latitude": 50.113889,
      "altitude": 1258.0
    }
  },
  {
    "id": 170,
    "iataCode": "YXP",
    "icaoCode": "CYXP",
    "name": "Pangnirtung",
    "fullName": "Pangnirtung Airport",
    "cityId": 161,
    "countryId": 4,
    "timeZoneName": "Eastern Standard Time",
    "location": {
      "longitude": -65.713611,
      "latitude": 66.145,
      "altitude": 75.0
    }
  },
  {
    "id": 171,
    "iataCode": "YXR",
    "icaoCode": "CYXR",
    "name": "Timiskaming Rgnl",
    "fullName": "Timiskaming Rgnl Airport",
    "cityId": 162,
    "countryId": 4,
    "timeZoneName": "Eastern Standard Time",
    "location": {
      "longitude": -79.848889,
      "latitude": 47.695,
      "altitude": 798.0
    }
  },
  {
    "id": 172,
    "iataCode": "YXS",
    "icaoCode": "CYXS",
    "name": "Prince George",
    "fullName": "Prince George Airport",
    "cityId": 163,
    "countryId": 4,
    "timeZoneName": "Pacific Standard Time",
    "location": {
      "longitude": -122.678889,
      "latitude": 53.889444,
      "altitude": 2267.0
    }
  },
  {
    "id": 173,
    "iataCode": "YXT",
    "icaoCode": "CYXT",
    "name": "Terrace",
    "fullName": "Terrace Airport",
    "cityId": 164,
    "countryId": 4,
    "timeZoneName": "Pacific Standard Time",
    "location": {
      "longitude": -128.576219,
      "latitude": 54.468508,
      "altitude": 713.0
    }
  },
  {
    "id": 174,
    "iataCode": "YXU",
    "icaoCode": "CYXU",
    "name": "London",
    "fullName": "London Airport",
    "cityId": 165,
    "countryId": 4,
    "timeZoneName": "Eastern Standard Time",
    "location": {
      "longitude": -81.151111,
      "latitude": 43.033056,
      "altitude": 912.0
    }
  },
  {
    "id": 175,
    "iataCode": "YXX",
    "icaoCode": "CYXX",
    "name": "Abbotsford",
    "fullName": "Abbotsford Airport",
    "cityId": 166,
    "countryId": 4,
    "timeZoneName": "Pacific Standard Time",
    "location": {
      "longitude": -122.360556,
      "latitude": 49.025278,
      "altitude": 195.0
    }
  },
  {
    "id": 176,
    "iataCode": "YXY",
    "icaoCode": "CYXY",
    "name": "Whitehorse Intl",
    "fullName": "Whitehorse Intl Airport",
    "cityId": 167,
    "countryId": 4,
    "timeZoneName": "Pacific Standard Time",
    "location": {
      "longitude": -135.067269,
      "latitude": 60.709553,
      "altitude": 2317.0
    }
  },
  {
    "id": 177,
    "iataCode": "YYB",
    "icaoCode": "CYYB",
    "name": "North Bay",
    "fullName": "North Bay Airport",
    "cityId": 168,
    "countryId": 4,
    "timeZoneName": "Eastern Standard Time",
    "location": {
      "longitude": -79.422778,
      "latitude": 46.363611,
      "altitude": 1215.0
    }
  },
  {
    "id": 178,
    "iataCode": "YYC",
    "icaoCode": "CYYC",
    "name": "Calgary Intl",
    "fullName": "Calgary Intl Airport",
    "cityId": 169,
    "countryId": 4,
    "timeZoneName": "Mountain Standard Time",
    "location": {
      "longitude": -114.020278,
      "latitude": 51.113888,
      "altitude": 3557.0
    }
  },
  {
    "id": 179,
    "iataCode": "YYD",
    "icaoCode": "CYYD",
    "name": "Smithers",
    "fullName": "Smithers Airport",
    "cityId": 170,
    "countryId": 4,
    "timeZoneName": "Pacific Standard Time",
    "location": {
      "longitude": -127.182778,
      "latitude": 54.824722,
      "altitude": 1712.0
    }
  },
  {
    "id": 180,
    "iataCode": "YYE",
    "icaoCode": "CYYE",
    "name": "Fort Nelson",
    "fullName": "Fort Nelson Airport",
    "cityId": 171,
    "countryId": 4,
    "timeZoneName": "Pacific Standard Time",
    "location": {
      "longitude": -122.596944,
      "latitude": 58.836389,
      "altitude": 1253.0
    }
  },
  {
    "id": 181,
    "iataCode": "YYF",
    "icaoCode": "CYYF",
    "name": "Penticton",
    "fullName": "Penticton Airport",
    "cityId": 172,
    "countryId": 4,
    "timeZoneName": "Pacific Standard Time",
    "location": {
      "longitude": -119.602222,
      "latitude": 49.463056,
      "altitude": 1129.0
    }
  },
  {
    "id": 182,
    "iataCode": "YYG",
    "icaoCode": "CYYG",
    "name": "Charlottetown",
    "fullName": "Charlottetown Airport",
    "cityId": 173,
    "countryId": 4,
    "timeZoneName": "Atlantic Standard Time",
    "location": {
      "longitude": -63.121111,
      "latitude": 46.290001,
      "altitude": 160.0
    }
  },
  {
    "id": 183,
    "iataCode": "YYH",
    "icaoCode": "CYYH",
    "name": "Taloyoak",
    "fullName": "Taloyoak Airport",
    "cityId": 174,
    "countryId": 4,
    "timeZoneName": "Mountain Standard Time",
    "location": {
      "longitude": -93.576667,
      "latitude": 69.546667,
      "altitude": 92.0
    }
  },
  {
    "id": 184,
    "iataCode": "YYJ",
    "icaoCode": "CYYJ",
    "name": "Victoria Intl",
    "fullName": "Victoria Intl Airport",
    "cityId": 175,
    "countryId": 4,
    "timeZoneName": "Pacific Standard Time",
    "location": {
      "longitude": -123.425833,
      "latitude": 48.646944,
      "altitude": 63.0
    }
  },
  {
    "id": 185,
    "iataCode": "YYL",
    "icaoCode": "CYYL",
    "name": "Lynn Lake",
    "fullName": "Lynn Lake Airport",
    "cityId": 176,
    "countryId": 4,
    "timeZoneName": "Central Standard Time",
    "location": {
      "longitude": -101.07611,
      "latitude": 56.863888,
      "altitude": 1170.0
    }
  },
  {
    "id": 186,
    "iataCode": "YYN",
    "icaoCode": "CYYN",
    "name": "Swift Current",
    "fullName": "Swift Current Airport",
    "cityId": 177,
    "countryId": 4,
    "timeZoneName": "Central Standard Time",
    "location": {
      "longitude": -107.690556,
      "latitude": 50.291944,
      "altitude": 2680.0
    }
  },
  {
    "id": 187,
    "iataCode": "YYQ",
    "icaoCode": "CYYQ",
    "name": "Churchill",
    "fullName": "Churchill Airport",
    "cityId": 178,
    "countryId": 4,
    "timeZoneName": "Central Standard Time",
    "location": {
      "longitude": -94.065,
      "latitude": 58.739167,
      "altitude": 94.0
    }
  },
  {
    "id": 188,
    "iataCode": "YYR",
    "icaoCode": "CYYR",
    "name": "Goose Bay",
    "fullName": "Goose Bay Airport",
    "cityId": 179,
    "countryId": 4,
    "timeZoneName": "Atlantic Standard Time",
    "location": {
      "longitude": -60.425833,
      "latitude": 53.319168,
      "altitude": 160.0
    }
  },
  {
    "id": 189,
    "iataCode": "YYT",
    "icaoCode": "CYYT",
    "name": "St Johns Intl",
    "fullName": "St Johns Intl Airport",
    "cityId": 180,
    "countryId": 4,
    "timeZoneName": "Newfoundland Standard Time",
    "location": {
      "longitude": -52.751945,
      "latitude": 47.61861,
      "altitude": 461.0
    }
  },
  {
    "id": 190,
    "iataCode": "YYU",
    "icaoCode": "CYYU",
    "name": "Kapuskasing",
    "fullName": "Kapuskasing Airport",
    "cityId": 181,
    "countryId": 4,
    "timeZoneName": "Eastern Standard Time",
    "location": {
      "longitude": -82.4675,
      "latitude": 49.413889,
      "altitude": 743.0
    }
  },
  {
    "id": 191,
    "iataCode": "YYW",
    "icaoCode": "CYYW",
    "name": "Armstrong",
    "fullName": "Armstrong Airport",
    "cityId": 182,
    "countryId": 4,
    "timeZoneName": "Eastern Standard Time",
    "location": {
      "longitude": -88.909721,
      "latitude": 50.290279,
      "altitude": 1058.0
    }
  },
  {
    "id": 192,
    "iataCode": "YYY",
    "icaoCode": "CYYY",
    "name": "Mont Joli",
    "fullName": "Mont Joli Airport",
    "cityId": 183,
    "countryId": 4,
    "timeZoneName": "Eastern Standard Time",
    "location": {
      "longitude": -68.208056,
      "latitude": 48.608612,
      "altitude": 172.0
    }
  },
  {
    "id": 193,
    "iataCode": "YYZ",
    "icaoCode": "CYYZ",
    "name": "Lester B Pearson Intl",
    "fullName": "Lester B Pearson Intl Airport",
    "cityId": 80,
    "countryId": 4,
    "timeZoneName": "Eastern Standard Time",
    "location": {
      "longitude": -79.630556,
      "latitude": 43.677223,
      "altitude": 569.0
    }
  },
  {
    "id": 194,
    "iataCode": "YZD",
    "icaoCode": "CYZD",
    "name": "Downsview",
    "fullName": "Downsview Airport",
    "cityId": 80,
    "countryId": 4,
    "timeZoneName": "Eastern Standard Time",
    "location": {
      "longitude": -79.465556,
      "latitude": 43.7425,
      "altitude": 652.0
    }
  },
  {
    "id": 195,
    "iataCode": "YZE",
    "icaoCode": "CYZE",
    "name": "Gore Bay Manitoulin",
    "fullName": "Gore Bay Manitoulin Airport",
    "cityId": 184,
    "countryId": 4,
    "timeZoneName": "Eastern Standard Time",
    "location": {
      "longitude": -82.567778,
      "latitude": 45.885277,
      "altitude": 635.0
    }
  },
  {
    "id": 196,
    "iataCode": "YZF",
    "icaoCode": "CYZF",
    "name": "Yellowknife",
    "fullName": "Yellowknife Airport",
    "cityId": 185,
    "countryId": 4,
    "timeZoneName": "Mountain Standard Time",
    "location": {
      "longitude": -114.440278,
      "latitude": 62.462778,
      "altitude": 675.0
    }
  },
  {
    "id": 197,
    "iataCode": "YZH",
    "icaoCode": "CYZH",
    "name": "Slave Lake",
    "fullName": "Slave Lake Airport",
    "cityId": 186,
    "countryId": 4,
    "timeZoneName": "Mountain Standard Time",
    "location": {
      "longitude": -114.777222,
      "latitude": 55.293056,
      "altitude": 1912.0
    }
  },
  {
    "id": 198,
    "iataCode": "YZP",
    "icaoCode": "CYZP",
    "name": "Sandspit",
    "fullName": "Sandspit Airport",
    "cityId": 187,
    "countryId": 4,
    "timeZoneName": "Pacific Standard Time",
    "location": {
      "longitude": -131.813833,
      "latitude": 53.254333,
      "altitude": 21.0
    }
  },
  {
    "id": 199,
    "iataCode": "YZR",
    "icaoCode": "CYZR",
    "name": "Chris Hadfield",
    "fullName": "Chris Hadfield Airport",
    "cityId": 188,
    "countryId": 4,
    "timeZoneName": "Eastern Standard Time",
    "location": {
      "longitude": -82.308889,
      "latitude": 42.999444,
      "altitude": 594.0
    }
  },
  {
    "id": 200,
    "iataCode": "YZT",
    "icaoCode": "CYZT",
    "name": "Port Hardy",
    "fullName": "Port Hardy Airport",
    "cityId": 189,
    "countryId": 4,
    "timeZoneName": "Pacific Standard Time",
    "location": {
      "longitude": -127.366667,
      "latitude": 50.680556,
      "altitude": 71.0
    }
  },
  {
    "id": 201,
    "iataCode": "YZU",
    "icaoCode": "CYZU",
    "name": "Whitecourt",
    "fullName": "Whitecourt Airport",
    "cityId": 190,
    "countryId": 4,
    "timeZoneName": "Mountain Standard Time",
    "location": {
      "longitude": -115.786667,
      "latitude": 54.14389,
      "altitude": 2567.0
    }
  },
  {
    "id": 202,
    "iataCode": "YZV",
    "icaoCode": "CYZV",
    "name": "Sept Iles",
    "fullName": "Sept Iles Airport",
    "cityId": 191,
    "countryId": 4,
    "timeZoneName": "Eastern Standard Time",
    "location": {
      "longitude": -66.265556,
      "latitude": 50.223333,
      "altitude": 180.0
    }
  },
  {
    "id": 203,
    "iataCode": "YZW",
    "icaoCode": "CYZW",
    "name": "Teslin",
    "fullName": "Teslin Airport",
    "cityId": 192,
    "countryId": 4,
    "timeZoneName": "Pacific Standard Time",
    "location": {
      "longitude": -132.742778,
      "latitude": 60.172779,
      "altitude": 2313.0
    }
  },
  {
    "id": 204,
    "iataCode": "YZX",
    "icaoCode": "CYZX",
    "name": "Greenwood",
    "fullName": "Greenwood Airport",
    "cityId": 193,
    "countryId": 4,
    "timeZoneName": "Atlantic Standard Time",
    "location": {
      "longitude": -64.916944,
      "latitude": 44.984444,
      "altitude": 92.0
    }
  },
  {
    "id": 205,
    "iataCode": "ZFA",
    "icaoCode": "CZFA",
    "name": "Faro",
    "fullName": "Faro Airport",
    "cityId": 194,
    "countryId": 4,
    "timeZoneName": "Pacific Standard Time",
    "location": {
      "longitude": -133.375833,
      "latitude": 62.2075,
      "altitude": 2351.0
    }
  },
  {
    "id": 206,
    "iataCode": "ZFM",
    "icaoCode": "CZFM",
    "name": "Fort Mcpherson",
    "fullName": "Fort Mcpherson Airport",
    "cityId": 195,
    "countryId": 4,
    "timeZoneName": "Mountain Standard Time",
    "location": {
      "longitude": -134.860556,
      "latitude": 67.4075,
      "altitude": 116.0
    }
  },
  {
    "id": 209,
    "iataCode": "BJA",
    "icaoCode": "DAAE",
    "name": "Soummam",
    "fullName": "Soummam Airport",
    "cityId": 196,
    "countryId": 5,
    "timeZoneName": "Central European Standard Time",
    "location": {
      "longitude": 5.069922,
      "latitude": 36.711997,
      "altitude": 20.0
    }
  },
  {
    "id": 210,
    "iataCode": "ALG",
    "icaoCode": "DAAG",
    "name": "Houari Boumediene",
    "fullName": "Houari Boumediene Airport",
    "cityId": 197,
    "countryId": 5,
    "timeZoneName": "Central European Standard Time",
    "location": {
      "longitude": 3.215408,
      "latitude": 36.691014,
      "altitude": 82.0
    }
  },
  {
    "id": 211,
    "iataCode": "DJG",
    "icaoCode": "DAAJ",
    "name": "Tiska",
    "fullName": "Tiska Airport",
    "cityId": 198,
    "countryId": 5,
    "timeZoneName": "Central European Standard Time",
    "location": {
      "longitude": 9.452444,
      "latitude": 24.292767,
      "altitude": 3176.0
    }
  },
  {
    "id": 212,
    "iataCode": "QFD",
    "icaoCode": "DAAK",
    "name": "Boufarik",
    "fullName": "Boufarik Airport",
    "cityId": 199,
    "countryId": 5,
    "timeZoneName": "Central European Standard Time",
    "location": {
      "longitude": 2.876111,
      "latitude": 36.545834,
      "altitude": 335.0
    }
  },
  {
    "id": 214,
    "iataCode": "VVZ",
    "icaoCode": "DAAP",
    "name": "Illizi Takhamalt",
    "fullName": "Illizi Takhamalt Airport",
    "cityId": 200,
    "countryId": 5,
    "timeZoneName": "Central European Standard Time",
    "location": {
      "longitude": 8.622653,
      "latitude": 26.723536,
      "altitude": 1778.0
    }
  },
  {
    "id": 216,
    "iataCode": "TMR",
    "icaoCode": "DAAT",
    "name": "Tamanrasset",
    "fullName": "Tamanrasset Airport",
    "cityId": 201,
    "countryId": 5,
    "timeZoneName": "Central European Standard Time",
    "location": {
      "longitude": 5.451075,
      "latitude": 22.811461,
      "altitude": 4518.0
    }
  },
  {
    "id": 217,
    "iataCode": "GJL",
    "icaoCode": "DAAV",
    "name": "Jijel",
    "fullName": "Jijel Airport",
    "cityId": 202,
    "countryId": 5,
    "timeZoneName": "Central European Standard Time",
    "location": {
      "longitude": 5.873608,
      "latitude": 36.795136,
      "altitude": 36.0
    }
  },
  {
    "id": 220,
    "iataCode": "AAE",
    "icaoCode": "DABB",
    "name": "Annaba",
    "fullName": "Annaba Airport",
    "cityId": 203,
    "countryId": 5,
    "timeZoneName": "Central European Standard Time",
    "location": {
      "longitude": 7.809167,
      "latitude": 36.822225,
      "altitude": 16.0
    }
  },
  {
    "id": 221,
    "iataCode": "CZL",
    "icaoCode": "DABC",
    "name": "Mohamed Boudiaf Intl",
    "fullName": "Mohamed Boudiaf Intl Airport",
    "cityId": 204,
    "countryId": 5,
    "timeZoneName": "Central European Standard Time",
    "location": {
      "longitude": 6.620386,
      "latitude": 36.276028,
      "altitude": 2265.0
    }
  },
  {
    "id": 222,
    "iataCode": "TEE",
    "icaoCode": "DABS",
    "name": "Cheikh Larbi Tebessi",
    "fullName": "Cheikh Larbi Tebessi Airport",
    "cityId": 205,
    "countryId": 5,
    "timeZoneName": "Central European Standard Time",
    "location": {
      "longitude": 8.120717,
      "latitude": 35.431611,
      "altitude": 2661.0
    }
  },
  {
    "id": 224,
    "iataCode": "HRM",
    "icaoCode": "DAFH",
    "name": "Hassi R Mel",
    "fullName": "Hassi R Mel Airport",
    "cityId": 206,
    "countryId": 5,
    "timeZoneName": "Central European Standard Time",
    "location": {
      "longitude": 3.311542,
      "latitude": 32.930431,
      "altitude": 2540.0
    }
  },
  {
    "id": 225,
    "iataCode": "TID",
    "icaoCode": "DAOB",
    "name": "Bou Chekif",
    "fullName": "Bou Chekif Airport",
    "cityId": 207,
    "countryId": 5,
    "timeZoneName": "Central European Standard Time",
    "location": {
      "longitude": 1.463147,
      "latitude": 35.341136,
      "altitude": 3245.0
    }
  },
  {
    "id": 227,
    "iataCode": "TIN",
    "icaoCode": "DAOF",
    "name": "Tindouf",
    "fullName": "Tindouf Airport",
    "cityId": 208,
    "countryId": 5,
    "timeZoneName": "Central European Standard Time",
    "location": {
      "longitude": -8.1671029999999991,
      "latitude": 27.700372,
      "altitude": 1453.0
    }
  },
  {
    "id": 228,
    "iataCode": "QAS",
    "icaoCode": "DAOI",
    "name": "Ech Cheliff",
    "fullName": "Ech Cheliff Airport",
    "cityId": 209,
    "countryId": 5,
    "timeZoneName": "Central European Standard Time",
    "location": {
      "longitude": 1.331775,
      "latitude": 36.212658,
      "altitude": 463.0
    }
  },
  {
    "id": 229,
    "iataCode": "TAF",
    "icaoCode": "DAOL",
    "name": "Tafaraoui",
    "fullName": "Tafaraoui Airport",
    "cityId": 210,
    "countryId": 5,
    "timeZoneName": "Central European Standard Time",
    "location": {
      "longitude": -0.532278,
      "latitude": 35.542444,
      "altitude": 367.0
    }
  },
  {
    "id": 230,
    "iataCode": "TLM",
    "icaoCode": "DAON",
    "name": "Zenata",
    "fullName": "Zenata Airport",
    "cityId": 211,
    "countryId": 5,
    "timeZoneName": "Central European Standard Time",
    "location": {
      "longitude": -1.45,
      "latitude": 35.016667,
      "altitude": 814.0
    }
  },
  {
    "id": 231,
    "iataCode": "ORN",
    "icaoCode": "DAOO",
    "name": "Es Senia",
    "fullName": "Es Senia Airport",
    "cityId": 210,
    "countryId": 5,
    "timeZoneName": "Central European Standard Time",
    "location": {
      "longitude": -0.621183,
      "latitude": 35.623858,
      "altitude": 295.0
    }
  },
  {
    "id": 233,
    "iataCode": "MUW",
    "icaoCode": "DAOV",
    "name": "Ghriss",
    "fullName": "Ghriss Airport",
    "cityId": 212,
    "countryId": 5,
    "timeZoneName": "Central European Standard Time",
    "location": {
      "longitude": 0.147142,
      "latitude": 35.207725,
      "altitude": 1686.0
    }
  },
  {
    "id": 234,
    "iataCode": "AZR",
    "icaoCode": "DAUA",
    "name": "Touat Cheikh Sidi Mohamed Belkebir",
    "fullName": "Touat Cheikh Sidi Mohamed Belkebir Airport",
    "cityId": 213,
    "countryId": 5,
    "timeZoneName": "Central European Standard Time",
    "location": {
      "longitude": -0.186414,
      "latitude": 27.837589,
      "altitude": 919.0
    }
  },
  {
    "id": 235,
    "iataCode": "BSK",
    "icaoCode": "DAUB",
    "name": "Biskra",
    "fullName": "Biskra Airport",
    "cityId": 214,
    "countryId": 5,
    "timeZoneName": "Central European Standard Time",
    "location": {
      "longitude": 5.738231,
      "latitude": 34.793289,
      "altitude": 289.0
    }
  },
  {
    "id": 236,
    "iataCode": "ELG",
    "icaoCode": "DAUE",
    "name": "El Golea",
    "fullName": "El Golea Airport",
    "cityId": 215,
    "countryId": 5,
    "timeZoneName": "Central European Standard Time",
    "location": {
      "longitude": 2.859586,
      "latitude": 30.571294,
      "altitude": 1306.0
    }
  },
  {
    "id": 237,
    "iataCode": "GHA",
    "icaoCode": "DAUG",
    "name": "Noumerat",
    "fullName": "Noumerat Airport",
    "cityId": 216,
    "countryId": 5,
    "timeZoneName": "Central European Standard Time",
    "location": {
      "longitude": 3.794114,
      "latitude": 32.384106,
      "altitude": 1512.0
    }
  },
  {
    "id": 238,
    "iataCode": "HME",
    "icaoCode": "DAUH",
    "name": "Oued Irara",
    "fullName": "Oued Irara Airport",
    "cityId": 217,
    "countryId": 5,
    "timeZoneName": "Central European Standard Time",
    "location": {
      "longitude": 6.140444,
      "latitude": 31.672972,
      "altitude": 463.0
    }
  },
  {
    "id": 239,
    "iataCode": "INZ",
    "icaoCode": "DAUI",
    "name": "In Salah",
    "fullName": "In Salah Airport",
    "cityId": 218,
    "countryId": 5,
    "timeZoneName": "Central European Standard Time",
    "location": {
      "longitude": 2.512017,
      "latitude": 27.251022,
      "altitude": 896.0
    }
  },
  {
    "id": 240,
    "iataCode": "TGR",
    "icaoCode": "DAUK",
    "name": "Sidi Mahdi",
    "fullName": "Sidi Mahdi Airport",
    "cityId": 219,
    "countryId": 5,
    "timeZoneName": "Central European Standard Time",
    "location": {
      "longitude": 6.088672,
      "latitude": 33.067803,
      "altitude": 279.0
    }
  },
  {
    "id": 241,
    "iataCode": "LOO",
    "icaoCode": "DAUL",
    "name": "Laghouat",
    "fullName": "Laghouat Airport",
    "cityId": 220,
    "countryId": 5,
    "timeZoneName": "Central European Standard Time",
    "location": {
      "longitude": 2.928344,
      "latitude": 33.764383,
      "altitude": 2510.0
    }
  },
  {
    "id": 242,
    "iataCode": "TMX",
    "icaoCode": "DAUT",
    "name": "Timimoun",
    "fullName": "Timimoun Airport",
    "cityId": 221,
    "countryId": 5,
    "timeZoneName": "Central European Standard Time",
    "location": {
      "longitude": 0.276033,
      "latitude": 29.237119,
      "altitude": 1027.0
    }
  },
  {
    "id": 243,
    "iataCode": "OGX",
    "icaoCode": "DAUU",
    "name": "Ouargla",
    "fullName": "Ouargla Airport",
    "cityId": 222,
    "countryId": 5,
    "timeZoneName": "Central European Standard Time",
    "location": {
      "longitude": 5.412778,
      "latitude": 31.917223,
      "altitude": 492.0
    }
  },
  {
    "id": 244,
    "iataCode": "IAM",
    "icaoCode": "DAUZ",
    "name": "In Amenas",
    "fullName": "In Amenas Airport",
    "cityId": 223,
    "countryId": 5,
    "timeZoneName": "Central European Standard Time",
    "location": {
      "longitude": 9.642911,
      "latitude": 28.05155,
      "altitude": 1847.0
    }
  },
  {
    "id": 245,
    "iataCode": "COO",
    "icaoCode": "DBBB",
    "name": "Cadjehoun",
    "fullName": "Cadjehoun Airport",
    "cityId": 224,
    "countryId": 6,
    "timeZoneName": "W. Central Africa Standard Time",
    "location": {
      "longitude": 2.384353,
      "latitude": 6.357228,
      "altitude": 19.0
    }
  },
  {
    "id": 246,
    "iataCode": "OUA",
    "icaoCode": "DFFD",
    "name": "Ouagadougou",
    "fullName": "Ouagadougou Airport",
    "cityId": 225,
    "countryId": 7,
    "timeZoneName": "Greenwich Standard Time",
    "location": {
      "longitude": -1.512417,
      "latitude": 12.353194,
      "altitude": 1037.0
    }
  },
  {
    "id": 247,
    "iataCode": "BOY",
    "icaoCode": "DFOO",
    "name": "Bobo Dioulasso",
    "fullName": "Bobo Dioulasso Airport",
    "cityId": 226,
    "countryId": 7,
    "timeZoneName": "Greenwich Standard Time",
    "location": {
      "longitude": -4.330969,
      "latitude": 11.160056,
      "altitude": 1511.0
    }
  },
  {
    "id": 248,
    "iataCode": "ACC",
    "icaoCode": "DGAA",
    "name": "Kotoka Intl",
    "fullName": "Kotoka Intl Airport",
    "cityId": 227,
    "countryId": 8,
    "timeZoneName": "Greenwich Standard Time",
    "location": {
      "longitude": -0.166786,
      "latitude": 5.605186,
      "altitude": 205.0
    }
  },
  {
    "id": 249,
    "iataCode": "TML",
    "icaoCode": "DGLE",
    "name": "Tamale",
    "fullName": "Tamale Airport",
    "cityId": 228,
    "countryId": 8,
    "timeZoneName": "Greenwich Standard Time",
    "location": {
      "longitude": -0.863214,
      "latitude": 9.557192,
      "altitude": 553.0
    }
  },
  {
    "id": 251,
    "iataCode": "NYI",
    "icaoCode": "DGSN",
    "name": "Sunyani",
    "fullName": "Sunyani Airport",
    "cityId": 229,
    "countryId": 8,
    "timeZoneName": "Greenwich Standard Time",
    "location": {
      "longitude": -2.328756,
      "latitude": 7.361828,
      "altitude": 1014.0
    }
  },
  {
    "id": 252,
    "iataCode": "TKD",
    "icaoCode": "DGTK",
    "name": "Takoradi",
    "fullName": "Takoradi Airport",
    "cityId": 230,
    "countryId": 8,
    "timeZoneName": "Greenwich Standard Time",
    "location": {
      "longitude": -1.774756,
      "latitude": 4.896056,
      "altitude": 21.0
    }
  },
  {
    "id": 260,
    "iataCode": "ABV",
    "icaoCode": "DNAA",
    "name": "Nnamdi Azikiwe Intl",
    "fullName": "Nnamdi Azikiwe Intl Airport",
    "cityId": 231,
    "countryId": 9,
    "timeZoneName": "W. Central Africa Standard Time",
    "location": {
      "longitude": 7.263172,
      "latitude": 9.006792,
      "altitude": 1123.0
    }
  },
  {
    "id": 261,
    "iataCode": "AKR",
    "icaoCode": "DNAK",
    "name": "Akure",
    "fullName": "Akure Airport",
    "cityId": 232,
    "countryId": 9,
    "timeZoneName": "W. Central Africa Standard Time",
    "location": {
      "longitude": 5.301008,
      "latitude": 7.246739,
      "altitude": 1100.0
    }
  },
  {
    "id": 262,
    "iataCode": "BNI",
    "icaoCode": "DNBE",
    "name": "Benin",
    "fullName": "Benin Airport",
    "cityId": 233,
    "countryId": 9,
    "timeZoneName": "W. Central Africa Standard Time",
    "location": {
      "longitude": 5.599503,
      "latitude": 6.316981,
      "altitude": 258.0
    }
  },
  {
    "id": 263,
    "iataCode": "CBQ",
    "icaoCode": "DNCA",
    "name": "Calabar",
    "fullName": "Calabar Airport",
    "cityId": 234,
    "countryId": 9,
    "timeZoneName": "W. Central Africa Standard Time",
    "location": {
      "longitude": 8.347197,
      "latitude": 4.976019,
      "altitude": 210.0
    }
  },
  {
    "id": 264,
    "iataCode": "ENU",
    "icaoCode": "DNEN",
    "name": "Enugu",
    "fullName": "Enugu Airport",
    "cityId": 235,
    "countryId": 9,
    "timeZoneName": "W. Central Africa Standard Time",
    "location": {
      "longitude": 7.561961,
      "latitude": 6.474272,
      "altitude": 466.0
    }
  },
  {
    "id": 265,
    "iataCode": "QUS",
    "icaoCode": "DNGU",
    "name": "Gusau",
    "fullName": "Gusau Airport",
    "cityId": 236,
    "countryId": 9,
    "timeZoneName": "W. Central Africa Standard Time",
    "location": {
      "longitude": 6.696111,
      "latitude": 12.171667,
      "altitude": 1520.0
    }
  },
  {
    "id": 266,
    "iataCode": "IBA",
    "icaoCode": "DNIB",
    "name": "Ibadan",
    "fullName": "Ibadan Airport",
    "cityId": 237,
    "countryId": 9,
    "timeZoneName": "W. Central Africa Standard Time",
    "location": {
      "longitude": 3.978333,
      "latitude": 7.362458,
      "altitude": 725.0
    }
  },
  {
    "id": 267,
    "iataCode": "ILR",
    "icaoCode": "DNIL",
    "name": "Ilorin",
    "fullName": "Ilorin Airport",
    "cityId": 238,
    "countryId": 9,
    "timeZoneName": "W. Central Africa Standard Time",
    "location": {
      "longitude": 4.493919,
      "latitude": 8.440211,
      "altitude": 1126.0
    }
  },
  {
    "id": 268,
    "iataCode": "JOS",
    "icaoCode": "DNJO",
    "name": "Yakubu Gowon",
    "fullName": "Yakubu Gowon Airport",
    "cityId": 239,
    "countryId": 9,
    "timeZoneName": "W. Central Africa Standard Time",
    "location": {
      "longitude": 8.86905,
      "latitude": 9.639828,
      "altitude": 4232.0
    }
  },
  {
    "id": 269,
    "iataCode": "KAD",
    "icaoCode": "DNKA",
    "name": "Kaduna",
    "fullName": "Kaduna Airport",
    "cityId": 240,
    "countryId": 9,
    "timeZoneName": "W. Central Africa Standard Time",
    "location": {
      "longitude": 7.320114,
      "latitude": 10.696025,
      "altitude": 2073.0
    }
  },
  {
    "id": 270,
    "iataCode": "KAN",
    "icaoCode": "DNKN",
    "name": "Mallam Aminu Intl",
    "fullName": "Mallam Aminu Intl Airport",
    "cityId": 241,
    "countryId": 9,
    "timeZoneName": "W. Central Africa Standard Time",
    "location": {
      "longitude": 8.524622,
      "latitude": 12.047589,
      "altitude": 1562.0
    }
  },
  {
    "id": 271,
    "iataCode": "MIU",
    "icaoCode": "DNMA",
    "name": "Maiduguri",
    "fullName": "Maiduguri Airport",
    "cityId": 242,
    "countryId": 9,
    "timeZoneName": "W. Central Africa Standard Time",
    "location": {
      "longitude": 13.08095,
      "latitude": 11.855347,
      "altitude": 1099.0
    }
  },
  {
    "id": 272,
    "iataCode": "MDI",
    "icaoCode": "DNMK",
    "name": "Makurdi",
    "fullName": "Makurdi Airport",
    "cityId": 243,
    "countryId": 9,
    "timeZoneName": "W. Central Africa Standard Time",
    "location": {
      "longitude": 8.613939,
      "latitude": 7.703883,
      "altitude": 371.0
    }
  },
  {
    "id": 273,
    "iataCode": "LOS",
    "icaoCode": "DNMM",
    "name": "Murtala Muhammed",
    "fullName": "Murtala Muhammed Airport",
    "cityId": 244,
    "countryId": 9,
    "timeZoneName": "W. Central Africa Standard Time",
    "location": {
      "longitude": 3.321156,
      "latitude": 6.577369,
      "altitude": 135.0
    }
  },
  {
    "id": 274,
    "iataCode": "MXJ",
    "icaoCode": "DNMN",
    "name": "Minna New",
    "fullName": "Minna New Airport",
    "cityId": 245,
    "countryId": 9,
    "timeZoneName": "W. Central Africa Standard Time",
    "location": {
      "longitude": 6.462256,
      "latitude": 9.652172,
      "altitude": 834.0
    }
  },
  {
    "id": 275,
    "iataCode": "PHC",
    "icaoCode": "DNPO",
    "name": "Port Harcourt Intl",
    "fullName": "Port Harcourt Intl Airport",
    "cityId": 246,
    "countryId": 9,
    "timeZoneName": "W. Central Africa Standard Time",
    "location": {
      "longitude": 6.949594,
      "latitude": 5.015494,
      "altitude": 87.0
    }
  },
  {
    "id": 276,
    "iataCode": "SKO",
    "icaoCode": "DNSO",
    "name": "Sadiq Abubakar Iii Intl",
    "fullName": "Sadiq Abubakar Iii Intl Airport",
    "cityId": 247,
    "countryId": 9,
    "timeZoneName": "W. Central Africa Standard Time",
    "location": {
      "longitude": 5.207189,
      "latitude": 12.916322,
      "altitude": 1010.0
    }
  },
  {
    "id": 277,
    "iataCode": "YOL",
    "icaoCode": "DNYO",
    "name": "Yola",
    "fullName": "Yola Airport",
    "cityId": 248,
    "countryId": 9,
    "timeZoneName": "W. Central Africa Standard Time",
    "location": {
      "longitude": 12.430422,
      "latitude": 9.257553,
      "altitude": 599.0
    }
  },
  {
    "id": 278,
    "iataCode": "ZAR",
    "icaoCode": "DNZA",
    "name": "Zaria",
    "fullName": "Zaria Airport",
    "cityId": 249,
    "countryId": 9,
    "timeZoneName": "W. Central Africa Standard Time",
    "location": {
      "longitude": 7.685806,
      "latitude": 11.130192,
      "altitude": 2170.0
    }
  },
  {
    "id": 279,
    "iataCode": "MFQ",
    "icaoCode": "DRRM",
    "name": "Maradi",
    "fullName": "Maradi Airport",
    "cityId": 250,
    "countryId": 10,
    "timeZoneName": "W. Central Africa Standard Time",
    "location": {
      "longitude": 7.126753,
      "latitude": 13.502531,
      "altitude": 1240.0
    }
  },
  {
    "id": 280,
    "iataCode": "NIM",
    "icaoCode": "DRRN",
    "name": "Diori Hamani",
    "fullName": "Diori Hamani Airport",
    "cityId": 251,
    "countryId": 10,
    "timeZoneName": "W. Central Africa Standard Time",
    "location": {
      "longitude": 2.183614,
      "latitude": 13.481547,
      "altitude": 732.0
    }
  },
  {
    "id": 281,
    "iataCode": "THZ",
    "icaoCode": "DRRT",
    "name": "Tahoua",
    "fullName": "Tahoua Airport",
    "cityId": 252,
    "countryId": 10,
    "timeZoneName": "W. Central Africa Standard Time",
    "location": {
      "longitude": 5.265358,
      "latitude": 14.875658,
      "altitude": 1266.0
    }
  },
  {
    "id": 282,
    "iataCode": "AJY",
    "icaoCode": "DRZA",
    "name": "Manu Dayak",
    "fullName": "Manu Dayak Airport",
    "cityId": 253,
    "countryId": 10,
    "timeZoneName": "W. Central Africa Standard Time",
    "location": {
      "longitude": 8.000114,
      "latitude": 16.965997,
      "altitude": 1657.0
    }
  },
  {
    "id": 285,
    "iataCode": "ZND",
    "icaoCode": "DRZR",
    "name": "Zinder",
    "fullName": "Zinder Airport",
    "cityId": 254,
    "countryId": 10,
    "timeZoneName": "W. Central Africa Standard Time",
    "location": {
      "longitude": 8.983761,
      "latitude": 13.778997,
      "altitude": 1516.0
    }
  },
  {
    "id": 286,
    "iataCode": "MIR",
    "icaoCode": "DTMB",
    "name": "Habib Bourguiba Intl",
    "fullName": "Habib Bourguiba Intl Airport",
    "cityId": 255,
    "countryId": 11,
    "timeZoneName": "Central European Standard Time",
    "location": {
      "longitude": 10.754722,
      "latitude": 35.758056,
      "altitude": 9.0
    }
  },
  {
    "id": 287,
    "iataCode": "TUN",
    "icaoCode": "DTTA",
    "name": "Carthage",
    "fullName": "Carthage Airport",
    "cityId": 256,
    "countryId": 11,
    "timeZoneName": "Central European Standard Time",
    "location": {
      "longitude": 10.227217,
      "latitude": 36.851033,
      "altitude": 22.0
    }
  },
  {
    "id": 290,
    "iataCode": "GAF",
    "icaoCode": "DTTF",
    "name": "Gafsa",
    "fullName": "Gafsa Airport",
    "cityId": 257,
    "countryId": 11,
    "timeZoneName": "Central European Standard Time",
    "location": {
      "longitude": 8.822503,
      "latitude": 34.422022,
      "altitude": 1060.0
    }
  },
  {
    "id": 291,
    "iataCode": "GAE",
    "icaoCode": "DTTG",
    "name": "Gabes",
    "fullName": "Gabes Airport",
    "cityId": 258,
    "countryId": 11,
    "timeZoneName": "Central European Standard Time",
    "location": {
      "longitude": 10.103333,
      "latitude": 33.876919,
      "altitude": 26.0
    }
  },
  {
    "id": 293,
    "iataCode": "DJE",
    "icaoCode": "DTTJ",
    "name": "Zarzis",
    "fullName": "Zarzis Airport",
    "cityId": 259,
    "countryId": 11,
    "timeZoneName": "Central European Standard Time",
    "location": {
      "longitude": 10.775461,
      "latitude": 33.875031,
      "altitude": 19.0
    }
  },
  {
    "id": 294,
    "iataCode": "EBM",
    "icaoCode": "DTTR",
    "name": "El Borma",
    "fullName": "El Borma Airport",
    "cityId": 260,
    "countryId": 11,
    "timeZoneName": "Central European Standard Time",
    "location": {
      "longitude": 9.254619,
      "latitude": 31.704281,
      "altitude": 827.0
    }
  },
  {
    "id": 295,
    "iataCode": "SFA",
    "icaoCode": "DTTX",
    "name": "Thyna",
    "fullName": "Thyna Airport",
    "cityId": 261,
    "countryId": 11,
    "timeZoneName": "Central European Standard Time",
    "location": {
      "longitude": 10.690972,
      "latitude": 34.717953,
      "altitude": 85.0
    }
  },
  {
    "id": 296,
    "iataCode": "TOE",
    "icaoCode": "DTTZ",
    "name": "Nefta",
    "fullName": "Nefta Airport",
    "cityId": 262,
    "countryId": 11,
    "timeZoneName": "Central European Standard Time",
    "location": {
      "longitude": 8.110556,
      "latitude": 33.939722,
      "altitude": 287.0
    }
  },
  {
    "id": 297,
    "iataCode": "LRL",
    "icaoCode": "DXNG",
    "name": "Niamtougou International",
    "fullName": "Niamtougou International Airport",
    "cityId": 263,
    "countryId": 12,
    "timeZoneName": "Greenwich Standard Time",
    "location": {
      "longitude": 1.09125,
      "latitude": 9.767333,
      "altitude": 1515.0
    }
  },
  {
    "id": 298,
    "iataCode": "LFW",
    "icaoCode": "DXXX",
    "name": "Gnassingbe Eyadema Intl",
    "fullName": "Gnassingbe Eyadema Intl Airport",
    "cityId": 264,
    "countryId": 12,
    "timeZoneName": "Greenwich Standard Time",
    "location": {
      "longitude": 1.254511,
      "latitude": 6.165611,
      "altitude": 72.0
    }
  },
  {
    "id": 299,
    "iataCode": "ANR",
    "icaoCode": "EBAW",
    "name": "Deurne",
    "fullName": "Deurne Airport",
    "cityId": 265,
    "countryId": 13,
    "timeZoneName": "Central European Standard Time",
    "location": {
      "longitude": 4.460278,
      "latitude": 51.189444,
      "altitude": 39.0
    }
  },
  {
    "id": 302,
    "iataCode": "BRU",
    "icaoCode": "EBBR",
    "name": "Brussels Natl",
    "fullName": "Brussels Natl Airport",
    "cityId": 266,
    "countryId": 13,
    "timeZoneName": "Central European Standard Time",
    "location": {
      "longitude": 4.484444,
      "latitude": 50.901389,
      "altitude": 184.0
    }
  },
  {
    "id": 304,
    "iataCode": "CRL",
    "icaoCode": "EBCI",
    "name": "Brussels South",
    "fullName": "Brussels South Airport",
    "cityId": 267,
    "countryId": 13,
    "timeZoneName": "Central European Standard Time",
    "location": {
      "longitude": 4.453817,
      "latitude": 50.459197,
      "altitude": 614.0
    }
  },
  {
    "id": 308,
    "iataCode": "QKT",
    "icaoCode": "EBKT",
    "name": "Wevelgem",
    "fullName": "Wevelgem Airport",
    "cityId": 268,
    "countryId": 13,
    "timeZoneName": "Central European Standard Time",
    "location": {
      "longitude": 3.204722,
      "latitude": 50.817222,
      "altitude": 64.0
    }
  },
  {
    "id": 309,
    "iataCode": "LGG",
    "icaoCode": "EBLG",
    "name": "Liege",
    "fullName": "Liege Airport",
    "cityId": 269,
    "countryId": 13,
    "timeZoneName": "Central European Standard Time",
    "location": {
      "longitude": 5.443222,
      "latitude": 50.637417,
      "altitude": 659.0
    }
  },
  {
    "id": 310,
    "iataCode": "OST",
    "icaoCode": "EBOS",
    "name": "Oostende",
    "fullName": "Oostende Airport",
    "cityId": 270,
    "countryId": 13,
    "timeZoneName": "Central European Standard Time",
    "location": {
      "longitude": 2.862222,
      "latitude": 51.198889,
      "altitude": 13.0
    }
  },
  {
    "id": 317,
    "iataCode": "BBJ",
    "icaoCode": "EDAB",
    "name": "Bautzen",
    "fullName": "Bautzen Airport",
    "cityId": 271,
    "countryId": 14,
    "timeZoneName": "Central European Standard Time",
    "location": {
      "longitude": 14.519747,
      "latitude": 51.193531,
      "altitude": 568.0
    }
  },
  {
    "id": 318,
    "iataCode": "AOC",
    "icaoCode": "EDAC",
    "name": "Altenburg Nobitz",
    "fullName": "Altenburg Nobitz Airport",
    "cityId": 272,
    "countryId": 14,
    "timeZoneName": "Central European Standard Time",
    "location": {
      "longitude": 12.506361,
      "latitude": 50.981817,
      "altitude": 640.0
    }
  },
  {
    "id": 329,
    "iataCode": "BBH",
    "icaoCode": "EDBH",
    "name": "Barth",
    "fullName": "Barth Airport",
    "cityId": 273,
    "countryId": 14,
    "timeZoneName": "Central European Standard Time",
    "location": {
      "longitude": 12.699705,
      "latitude": 54.33754,
      "altitude": 23.0
    }
  },
  {
    "id": 337,
    "iataCode": "SXF",
    "icaoCode": "EDDB",
    "name": "Schonefeld",
    "fullName": "Schonefeld Airport",
    "cityId": 274,
    "countryId": 14,
    "timeZoneName": "Central European Standard Time",
    "location": {
      "longitude": 13.5225,
      "latitude": 52.380001,
      "altitude": 157.0
    }
  },
  {
    "id": 338,
    "iataCode": "DRS",
    "icaoCode": "EDDC",
    "name": "Dresden",
    "fullName": "Dresden Airport",
    "cityId": 275,
    "countryId": 14,
    "timeZoneName": "Central European Standard Time",
    "location": {
      "longitude": 13.767161,
      "latitude": 51.132767,
      "altitude": 755.0
    }
  },
  {
    "id": 339,
    "iataCode": "ERF",
    "icaoCode": "EDDE",
    "name": "Erfurt",
    "fullName": "Erfurt Airport",
    "cityId": 276,
    "countryId": 14,
    "timeZoneName": "Central European Standard Time",
    "location": {
      "longitude": 10.958106,
      "latitude": 50.979811,
      "altitude": 1036.0
    }
  },
  {
    "id": 340,
    "iataCode": "FRA",
    "icaoCode": "EDDF",
    "name": "Frankfurt Main",
    "fullName": "Frankfurt Main Airport",
    "cityId": 277,
    "countryId": 14,
    "timeZoneName": "Central European Standard Time",
    "location": {
      "longitude": 8.543125,
      "latitude": 50.026421,
      "altitude": 364.0
    }
  },
  {
    "id": 341,
    "iataCode": "FMO",
    "icaoCode": "EDDG",
    "name": "Munster Osnabruck",
    "fullName": "Munster Osnabruck Airport",
    "cityId": 278,
    "countryId": 14,
    "timeZoneName": "Central European Standard Time",
    "location": {
      "longitude": 7.684831,
      "latitude": 52.134642,
      "altitude": 160.0
    }
  },
  {
    "id": 342,
    "iataCode": "HAM",
    "icaoCode": "EDDH",
    "name": "Hamburg",
    "fullName": "Hamburg Airport",
    "cityId": 279,
    "countryId": 14,
    "timeZoneName": "Central European Standard Time",
    "location": {
      "longitude": 9.988228,
      "latitude": 53.630389,
      "altitude": 53.0
    }
  },
  {
    "id": 343,
    "iataCode": "THF",
    "icaoCode": "EDDI",
    "name": "Tempelhof",
    "fullName": "Tempelhof Airport",
    "cityId": 274,
    "countryId": 14,
    "timeZoneName": "Central European Standard Time",
    "location": {
      "longitude": 13.403944,
      "latitude": 52.473025,
      "altitude": 167.0
    }
  },
  {
    "id": 344,
    "iataCode": "CGN",
    "icaoCode": "EDDK",
    "name": "Koln Bonn",
    "fullName": "Koln Bonn Airport",
    "cityId": 280,
    "countryId": 14,
    "timeZoneName": "Central European Standard Time",
    "location": {
      "longitude": 7.142744,
      "latitude": 50.865917,
      "altitude": 302.0
    }
  },
  {
    "id": 345,
    "iataCode": "DUS",
    "icaoCode": "EDDL",
    "name": "Dusseldorf",
    "fullName": "Dusseldorf Airport",
    "cityId": 281,
    "countryId": 14,
    "timeZoneName": "Central European Standard Time",
    "location": {
      "longitude": 6.766775,
      "latitude": 51.289453,
      "altitude": 147.0
    }
  },
  {
    "id": 346,
    "iataCode": "MUC",
    "icaoCode": "EDDM",
    "name": "Franz Josef Strauss",
    "fullName": "Franz Josef Strauss Airport",
    "cityId": 282,
    "countryId": 14,
    "timeZoneName": "Central European Standard Time",
    "location": {
      "longitude": 11.786086,
      "latitude": 48.353783,
      "altitude": 1487.0
    }
  },
  {
    "id": 347,
    "iataCode": "NUE",
    "icaoCode": "EDDN",
    "name": "Nurnberg",
    "fullName": "Nurnberg Airport",
    "cityId": 283,
    "countryId": 14,
    "timeZoneName": "Central European Standard Time",
    "location": {
      "longitude": 11.066897,
      "latitude": 49.4987,
      "altitude": 1046.0
    }
  },
  {
    "id": 348,
    "iataCode": "LEJ",
    "icaoCode": "EDDP",
    "name": "Leipzig Halle",
    "fullName": "Leipzig Halle Airport",
    "cityId": 284,
    "countryId": 14,
    "timeZoneName": "Central European Standard Time",
    "location": {
      "longitude": 12.241633,
      "latitude": 51.432447,
      "altitude": 465.0
    }
  },
  {
    "id": 349,
    "iataCode": "SCN",
    "icaoCode": "EDDR",
    "name": "Saarbrucken",
    "fullName": "Saarbrucken Airport",
    "cityId": 285,
    "countryId": 14,
    "timeZoneName": "Central European Standard Time",
    "location": {
      "longitude": 7.109508,
      "latitude": 49.214553,
      "altitude": 1058.0
    }
  },
  {
    "id": 350,
    "iataCode": "STR",
    "icaoCode": "EDDS",
    "name": "Stuttgart",
    "fullName": "Stuttgart Airport",
    "cityId": 286,
    "countryId": 14,
    "timeZoneName": "Central European Standard Time",
    "location": {
      "longitude": 9.221964,
      "latitude": 48.689878,
      "altitude": 1276.0
    }
  },
  {
    "id": 351,
    "iataCode": "TXL",
    "icaoCode": "EDDT",
    "name": "Tegel",
    "fullName": "Tegel Airport",
    "cityId": 274,
    "countryId": 14,
    "timeZoneName": "Central European Standard Time",
    "location": {
      "longitude": 13.287711,
      "latitude": 52.559686,
      "altitude": 122.0
    }
  },
  {
    "id": 352,
    "iataCode": "HAJ",
    "icaoCode": "EDDV",
    "name": "Hannover",
    "fullName": "Hannover Airport",
    "cityId": 287,
    "countryId": 14,
    "timeZoneName": "Central European Standard Time",
    "location": {
      "longitude": 9.685078,
      "latitude": 52.461056,
      "altitude": 183.0
    }
  },
  {
    "id": 353,
    "iataCode": "BRE",
    "icaoCode": "EDDW",
    "name": "Neuenland",
    "fullName": "Neuenland Airport",
    "cityId": 288,
    "countryId": 14,
    "timeZoneName": "Central European Standard Time",
    "location": {
      "longitude": 8.786667,
      "latitude": 53.0475,
      "altitude": 14.0
    }
  },
  {
    "id": 355,
    "iataCode": "HHN",
    "icaoCode": "EDFH",
    "name": "Frankfurt Hahn",
    "fullName": "Frankfurt Hahn Airport",
    "cityId": 289,
    "countryId": 14,
    "timeZoneName": "Central European Standard Time",
    "location": {
      "longitude": 7.263892,
      "latitude": 49.948672,
      "altitude": 1649.0
    }
  },
  {
    "id": 356,
    "iataCode": "MHG",
    "icaoCode": "EDFM",
    "name": "Mannheim City",
    "fullName": "Mannheim City Airport",
    "cityId": 290,
    "countryId": 14,
    "timeZoneName": "Central European Standard Time",
    "location": {
      "longitude": 8.514264,
      "latitude": 49.472706,
      "altitude": 309.0
    }
  },
  {
    "id": 362,
    "iataCode": "XFW",
    "icaoCode": "EDHI",
    "name": "Hamburg Finkenwerder",
    "fullName": "Hamburg Finkenwerder Airport",
    "cityId": 279,
    "countryId": 14,
    "timeZoneName": "Central European Standard Time",
    "location": {
      "longitude": 9.837025,
      "latitude": 53.535886,
      "altitude": 22.0
    }
  },